[{"id_mt":"4G013","entidad":"ANI","gizscore":"1.771262","fallecidos":"11","gipvalue":"0.076517","tramo":"Bogotá - Villavicencio","nombre":"IP  –  Chirajara - Fundadores","latitud":"4.452987","longitud":"-74.046677","pr":"10","municipio":"CHIPAQUE","departamento":"CUNDINAMARCA","divipola":"25178"}
,{"id_mt":"4G013","entidad":"ANI","gizscore":"3.818008","fallecidos":"23","gipvalue":"0.000135","tramo":"Bogotá - Villavicencio","nombre":"IP  –  Chirajara - Fundadores","latitud":"4.228251","longitud":"-73.818342","pr":"58","municipio":"GUAYABETAL","departamento":"CUNDINAMARCA","divipola":"25335"}
,{"id_mt":"4G013","entidad":"ANI","gizscore":"2.796662","fallecidos":"1","gipvalue":"0.005163","tramo":"Bogotá - Villavicencio","nombre":"IP  –  Chirajara - Fundadores","latitud":"4.203601","longitud":"-73.807188","pr":"60","municipio":"GUAYABETAL","departamento":"CUNDINAMARCA","divipola":"25335"}
,{"id_mt":"4G013","entidad":"ANI","gizscore":"1.725132","fallecidos":"1","gipvalue":"0.084504","tramo":"Bogotá - Villavicencio","nombre":"IP  –  Chirajara - Fundadores","latitud":"4.121453","longitud":"-73.643971","pr":"85","municipio":"VILLAVICENCIO","departamento":"META","divipola":"50001"}
,{"id_mt":"<Null>","entidad":"INVIAS-OTROS","gizscore":"1.725132","fallecidos":"13","gipvalue":"0.084504","tramo":"Granada - Villavicencio","latitud":"4.115757","longitud":"-73.647497","pr":"sd","municipio":"VILLAVICENCIO","departamento":"META","divipola":"50001"}
,{"id_mt":"4G020","entidad":"ANI","gizscore":"1.93442","fallecidos":"4","gipvalue":"0.053062","tramo":"Villavicencio - Yopal","nombre":"Villavicencio - Yopal","latitud":"4.201806","longitud":"-73.592214","pr":"8","municipio":"RESTREPO","departamento":"META","divipola":"50606"}
,{"id_mt":"3G001","entidad":"ANI","gizscore":"1.942162","fallecidos":"1","gipvalue":"0.052117","tramo":"Duitama-Sogamoso","nombre":"Briceño - Tunja - Sogamoso","latitud":"5.808537","longitud":"-73.012985","pr":"2","municipio":"TIBASOSA","departamento":"BOYACÁ","divipola":"15806"}
,{"id_mt":"3G001","entidad":"ANI","gizscore":"2.144165","fallecidos":"15","gipvalue":"0.03202","tramo":"Duitama-Sogamoso","nombre":"Briceño - Tunja - Sogamoso","latitud":"5.806803","longitud":"-73.027743","pr":"0","municipio":"DUITAMA","departamento":"BOYACÁ","divipola":"15238"}
,{"id_mt":"3G001","entidad":"ANI","gizscore":"2.144165","fallecidos":"1","gipvalue":"0.03202","tramo":"Tunja - Duitama","nombre":"Briceño - Tunja - Sogamoso","latitud":"5.803867","longitud":"-73.040309","pr":"47","municipio":"DUITAMA","departamento":"BOYACÁ","divipola":"15238"}
,{"id_mt":"3G001","entidad":"ANI","gizscore":"2.144165","fallecidos":"9","gipvalue":"0.03202","tramo":"Tunja - Duitama","nombre":"Briceño - Tunja - Sogamoso","latitud":"5.798637","longitud":"-73.042764","pr":"45","municipio":"DUITAMA","departamento":"BOYACÁ","divipola":"15238"}
,{"id_mt":"3G001","entidad":"ANI","gizscore":"2.403517","fallecidos":"11","gipvalue":"0.016238","tramo":"Bogotá - Tunja","nombre":"Briceño - Tunja - Sogamoso","latitud":"5.00172","longitud":"-73.865477","pr":"32","municipio":"GACHANCIPÁ","departamento":"CUNDINAMARCA","divipola":"25295"}
,{"id_mt":"3G001","entidad":"ANI","gizscore":"2.283962","fallecidos":"1","gipvalue":"0.022374","tramo":"Bogotá - Tunja","nombre":"Briceño - Tunja - Sogamoso","latitud":"4.975713","longitud":"-73.89282","pr":"28","municipio":"GACHANCIPÁ","departamento":"CUNDINAMARCA","divipola":"25295"}
,{"id_mt":"3G001","entidad":"ANI","gizscore":"2.454862","fallecidos":"13","gipvalue":"0.014094","tramo":"Bogotá - Tunja","nombre":"Briceño - Tunja - Sogamoso","latitud":"4.969318","longitud":"-73.902877","pr":"26","municipio":"TOCANCIPÁ","departamento":"CUNDINAMARCA","divipola":"25817"}
,{"id_mt":"3G001","entidad":"ANI","gizscore":"3.138462","fallecidos":"9","gipvalue":"0.001698","tramo":"Bogotá - Tunja","nombre":"Briceño - Tunja - Sogamoso","latitud":"4.963642","longitud":"-73.916891","pr":"sd","municipio":"TOCANCIPÁ","departamento":"CUNDINAMARCA","divipola":"25817"}
,{"id_mt":"4G012","entidad":"ANI","gizscore":"1.725132","fallecidos":"2","gipvalue":"0.084504","tramo":"Villavicencio-Puente Arimena","nombre":"IP Malla Vial del Meta","latitud":"4.095555","longitud":"-72.948075","pr":"3","municipio":"PUERTO LÓPEZ","departamento":"META","divipola":"50573"}
,{"id_mt":"4G012","entidad":"ANI","gizscore":"1.725132","fallecidos":"2","gipvalue":"0.084504","tramo":"Villavicencio-Puente Arimena","nombre":"IP Malla Vial del Meta","latitud":"4.078851","longitud":"-72.973513","pr":"77","municipio":"PUERTO LÓPEZ","departamento":"META","divipola":"50573"}
,{"id_mt":"<Null>","entidad":"INVIAS-OTROS","gizscore":"2.10757","fallecidos":"10","gipvalue":"0.035068","tramo":"Bogotá - Barbosa","latitud":"5.084119","longitud":"-73.928809","pr":"38","municipio":"NEMOCÓN","departamento":"CUNDINAMARCA","divipola":"25486"}
,{"id_mt":"<Null>","entidad":"INVIAS-OTROS","gizscore":"2.995412","fallecidos":"13","gipvalue":"0.002741","tramo":"Puerto Araújo-Cimitarra","latitud":"6.345133","longitud":"-73.960097","pr":"27","municipio":"CIMITARRA","departamento":"SANTANDER","divipola":"68190"}
,{"id_mt":"1G002","entidad":"ANI","gizscore":"2.625762","fallecidos":"12","gipvalue":"0.008646","tramo":"Bogotá - Villeta","nombre":"Bogotá – La Vega – Villeta (BVLPV)","latitud":"4.986548","longitud":"-74.326199","pr":"93","municipio":"LA VEGA","departamento":"CUNDINAMARCA","divipola":"25402"}
,{"id_mt":"1G002","entidad":"ANI","gizscore":"2.967562","fallecidos":"10","gipvalue":"0.003002","tramo":"Bogotá - Villeta","nombre":"Bogotá – La Vega – Villeta (BVLPV)","latitud":"4.995154","longitud":"-74.338199","pr":"91","municipio":"LA VEGA","departamento":"CUNDINAMARCA","divipola":"25402"}
,{"id_mt":"1G002","entidad":"ANI","gizscore":"4.676561","fallecidos":"10","gipvalue":"0.0000030","tramo":"Bogotá - Villeta","nombre":"Bogotá – La Vega – Villeta (BVLPV)","latitud":"5.024027","longitud":"-74.470159","pr":"67","municipio":"VILLETA","departamento":"CUNDINAMARCA","divipola":"25875"}
,{"id_mt":"<Null>","entidad":"DEPTO","gizscore":"3.399433","fallecidos":"12","gipvalue":"0.000675","latitud":"5.012001","longitud":"-74.480712","pr":"64","municipio":"VILLETA","departamento":"CUNDINAMARCA","divipola":"25875"}
,{"id_mt":"<Null>","entidad":"INVIAS-OTROS","gizscore":"3.818008","fallecidos":"14","gipvalue":"0.000135","tramo":"Villeta-Honda","latitud":"5.024411","longitud":"-74.491387","pr":"62","municipio":"VILLETA","departamento":"CUNDINAMARCA","divipola":"25875"}
,{"id_mt":"<Null>","entidad":"INVIAS-OTROS","gizscore":"1.93442","fallecidos":"7","gipvalue":"0.053062","tramo":"Villeta-Honda","latitud":"5.060263","longitud":"-74.575627","pr":"36","municipio":"GUADUAS","departamento":"CUNDINAMARCA","divipola":"25320"}
,{"id_mt":"<Null>","entidad":"INVIAS-OTROS","gizscore":"2.454862","fallecidos":"8","gipvalue":"0.014094","tramo":"Villeta-Honda","latitud":"5.06123","longitud":"-74.584733","pr":"34","municipio":"GUADUAS","departamento":"CUNDINAMARCA","divipola":"25320"}
,{"id_mt":"<Null>","entidad":"INVIAS-OTROS","gizscore":"2.143707","fallecidos":"8","gipvalue":"0.032056","tramo":"Villeta-Honda","latitud":"5.064345","longitud":"-74.593076","pr":"34","municipio":"GUADUAS","departamento":"CUNDINAMARCA","divipola":"25320"}
,{"id_mt":"1G007","entidad":"ANI","gizscore":"2.995412","fallecidos":"13","gipvalue":"0.002741","tramo":"Bogotá - Mosquera","nombre":"Bogotá (Fontibón) – Faca – Los Alpes","latitud":"4.696039","longitud":"-74.173057","pr":"72","municipio":"MOSQUERA","departamento":"CUNDINAMARCA","divipola":"25473"}
,{"id_mt":"1G007","entidad":"ANI","gizscore":"6.546778","fallecidos":"25","gipvalue":"0","tramo":"Bogotá - Mosquera","nombre":"Bogotá (Fontibón) – Faca – Los Alpes","latitud":"4.697829","longitud":"-74.198878","pr":"69","municipio":"FUNZA","departamento":"CUNDINAMARCA","divipola":"25286"}
,{"id_mt":"1G007","entidad":"ANI","gizscore":"3.138462","fallecidos":"5","gipvalue":"0.001698","tramo":"Mosquera - Facatativa - Los Andes","nombre":"Bogotá (Fontibón) – Faca – Los Alpes","latitud":"4.774403","longitud":"-74.317396","pr":"52","municipio":"MADRID","departamento":"CUNDINAMARCA","divipola":"25430"}
,{"id_mt":"1G007","entidad":"ANI","gizscore":"2.454862","fallecidos":"16","gipvalue":"0.014094","tramo":"Mosquera - Facatativa - Los Andes","nombre":"Bogotá (Fontibón) – Faca – Los Alpes","latitud":"4.780969","longitud":"-74.325839","pr":"52","municipio":"FACATATIVÁ","departamento":"CUNDINAMARCA","divipola":"25269"}
,{"id_mt":"1G007","entidad":"ANI","gizscore":"1.942162","fallecidos":"2","gipvalue":"0.052117","tramo":"Mosquera - Facatativa - Los Andes","nombre":"Bogotá (Fontibón) – Faca – Los Alpes","latitud":"4.788334","longitud":"-74.334441","pr":"51","municipio":"FACATATIVÁ","departamento":"CUNDINAMARCA","divipola":"25269"}
,{"id_mt":"<Null>","entidad":"DEPTO","gizscore":"3.328315","fallecidos":"8","gipvalue":"0.000874","tramo":"Mosquera - Funza","latitud":"4.74712","longitud":"-74.168107","pr":"sd","municipio":"FUNZA","departamento":"CUNDINAMARCA","divipola":"25286"}
,{"id_mt":"<Null>","entidad":"DEPTO","gizscore":"6.043761","fallecidos":"19","gipvalue":"0","tramo":"Mosquera - Funza","latitud":"4.737457","longitud":"-74.180797","pr":"sd","municipio":"FUNZA","departamento":"CUNDINAMARCA","divipola":"25286"}
,{"id_mt":"<Null>","entidad":"DEPTO","gizscore":"7.752761","fallecidos":"17","gipvalue":"0","tramo":"Mosquera - Funza","latitud":"4.726685","longitud":"-74.191834","pr":"sd","municipio":"FUNZA","departamento":"CUNDINAMARCA","divipola":"25286"}
,{"id_mt":"<Null>","entidad":"DEPTO","gizscore":"6.120171","fallecidos":"18","gipvalue":"0","tramo":"Mosquera - Funza","latitud":"4.716745","longitud":"-74.204249","pr":"sd","municipio":"FUNZA","departamento":"CUNDINAMARCA","divipola":"25286"}
,{"id_mt":"4G032","entidad":"ANI","gizscore":"1.93442","fallecidos":"3","gipvalue":"0.053062","tramo":"Girardot - Bogotá","nombre":"IP  –  Ampliación a Tercer Carril Doble Calzada Bogotá - Girardot","latitud":"4.539306","longitud":"-74.261896","pr":"111","municipio":"SIBATÉ","departamento":"CUNDINAMARCA","divipola":"25740"}
,{"id_mt":"4G032","entidad":"ANI","gizscore":"1.942162","fallecidos":"2","gipvalue":"0.052117","tramo":"Girardot - Bogotá","nombre":"IP  –  Ampliación a Tercer Carril Doble Calzada Bogotá - Girardot","latitud":"4.536913","longitud":"-74.281327","pr":"107","municipio":"SOACHA","departamento":"CUNDINAMARCA","divipola":"25754"}
,{"id_mt":"4G032","entidad":"ANI","gizscore":"2.403517","fallecidos":"11","gipvalue":"0.016238","tramo":"Girardot - Bogotá","nombre":"IP  –  Ampliación a Tercer Carril Doble Calzada Bogotá - Girardot","latitud":"4.529922","longitud":"-74.339426","pr":"98","municipio":"GRANADA","departamento":"CUNDINAMARCA","divipola":"25312"}
,{"id_mt":"4G032","entidad":"ANI","gizscore":"1.725132","fallecidos":"6","gipvalue":"0.084504","tramo":"Girardot - Bogotá","nombre":"IP  –  Ampliación a Tercer Carril Doble Calzada Bogotá - Girardot","latitud":"4.518838","longitud":"-74.357806","pr":"96","municipio":"GRANADA","departamento":"CUNDINAMARCA","divipola":"25312"}
,{"id_mt":"4G032","entidad":"ANI","gizscore":"1.725132","fallecidos":"8","gipvalue":"0.084504","tramo":"Girardot - Bogotá","nombre":"IP  –  Ampliación a Tercer Carril Doble Calzada Bogotá - Girardot","latitud":"4.504559","longitud":"-74.364744","pr":"94","municipio":"GRANADA","departamento":"CUNDINAMARCA","divipola":"25312"}
,{"id_mt":"4G032","entidad":"ANI","gizscore":"2.562283","fallecidos":"10","gipvalue":"0.010399","tramo":"Girardot - Bogotá","nombre":"IP  –  Ampliación a Tercer Carril Doble Calzada Bogotá - Girardot","latitud":"4.425913","longitud":"-74.390199","pr":"82","municipio":"SILVANIA","departamento":"CUNDINAMARCA","divipola":"25743"}
,{"id_mt":"4G032","entidad":"ANI","gizscore":"2.454862","fallecidos":"8","gipvalue":"0.014094","tramo":"Girardot - Bogotá","nombre":"IP  –  Ampliación a Tercer Carril Doble Calzada Bogotá - Girardot","latitud":"4.407575","longitud":"-74.391368","pr":"80","municipio":"SILVANIA","departamento":"CUNDINAMARCA","divipola":"25743"}
,{"id_mt":"4G032","entidad":"ANI","gizscore":"2.77157","fallecidos":"3","gipvalue":"0.005579","tramo":"Girardot - Bogotá","nombre":"IP  –  Ampliación a Tercer Carril Doble Calzada Bogotá - Girardot","latitud":"4.375719","longitud":"-74.388125","pr":"75","municipio":"FUSAGASUGÁ","departamento":"CUNDINAMARCA","divipola":"25290"}
,{"id_mt":"4G032","entidad":"ANI","gizscore":"2.77157","fallecidos":"16","gipvalue":"0.005579","tramo":"Girardot - Bogotá","nombre":"IP  –  Ampliación a Tercer Carril Doble Calzada Bogotá - Girardot","latitud":"4.361716","longitud":"-74.37977","pr":"71","municipio":"FUSAGASUGÁ","departamento":"CUNDINAMARCA","divipola":"25290"}
,{"id_mt":"4G032","entidad":"ANI","gizscore":"3.883253","fallecidos":"16","gipvalue":"0.000103","tramo":"Girardot - Bogotá","nombre":"IP  –  Ampliación a Tercer Carril Doble Calzada Bogotá - Girardot","latitud":"4.310412","longitud":"-74.439811","pr":"61","municipio":"FUSAGASUGÁ","departamento":"CUNDINAMARCA","divipola":"25290"}
,{"id_mt":"4G032","entidad":"ANI","gizscore":"1.811623","fallecidos":"9","gipvalue":"0.070044","tramo":"Girardot - Bogotá","nombre":"IP  –  Ampliación a Tercer Carril Doble Calzada Bogotá - Girardot","latitud":"4.289098","longitud":"-74.466172","pr":"57","municipio":"FUSAGASUGÁ","departamento":"CUNDINAMARCA","divipola":"25290"}
,{"id_mt":"4G032","entidad":"ANI","gizscore":"3.190145","fallecidos":"9","gipvalue":"0.001422","tramo":"Girardot - Bogotá","nombre":"IP  –  Ampliación a Tercer Carril Doble Calzada Bogotá - Girardot","latitud":"4.26336","longitud":"-74.518687","pr":"49","municipio":"FUSAGASUGÁ","departamento":"CUNDINAMARCA","divipola":"25290"}
,{"id_mt":"4G032","entidad":"ANI","gizscore":"2.796662","fallecidos":"12","gipvalue":"0.005163","tramo":"Girardot - Bogotá","nombre":"IP  –  Ampliación a Tercer Carril Doble Calzada Bogotá - Girardot","latitud":"4.260434","longitud":"-74.535832","pr":"43","municipio":"FUSAGASUGÁ","departamento":"CUNDINAMARCA","divipola":"25290"}
,{"id_mt":"4G032","entidad":"ANI","gizscore":"2.143707","fallecidos":"4","gipvalue":"0.032056","tramo":"Girardot - Bogotá","nombre":"IP  –  Ampliación a Tercer Carril Doble Calzada Bogotá - Girardot","latitud":"4.254834","longitud":"-74.53858","pr":"43","municipio":"FUSAGASUGÁ","departamento":"CUNDINAMARCA","divipola":"25290"}
,{"id_mt":"3G009","entidad":"ANI","gizscore":"1.725132","fallecidos":"7","gipvalue":"0.084504","tramo":"Ibagué- Girardot","nombre":"Girardot – Ibagué – Cajamarca","latitud":"4.233387","longitud":"-74.9046","pr":"sd","municipio":"ESPINAL","departamento":"TOLIMA","divipola":"73268"}
,{"id_mt":"3G009","entidad":"ANI","gizscore":"2.995412","fallecidos":"13","gipvalue":"0.002741","tramo":"Ibagué- Girardot","nombre":"Girardot – Ibagué – Cajamarca","latitud":"4.374953","longitud":"-75.117841","pr":"23","municipio":"IBAGUÉ","departamento":"TOLIMA","divipola":"73001"}
,{"id_mt":"4G015","entidad":"ANI","gizscore":"1.811623","fallecidos":"9","gipvalue":"0.070044","tramo":"Ibagué - Venadillo - Lérida","nombre":"IP  –  Cambao Manizales","latitud":"4.464096","longitud":"-75.033862","pr":"13","municipio":"ALVARADO","departamento":"TOLIMA","divipola":"73026"}
,{"id_mt":"<Null>","entidad":"INVIAS-OTROS","gizscore":"1.811623","fallecidos":"9","gipvalue":"0.070044","tramo":"Puerto Salgar - Barranca","latitud":"5.603046","longitud":"-74.621779","pr":"52","municipio":"PUERTO SALGAR","departamento":"CUNDINAMARCA","divipola":"25572"}
,{"id_mt":"<Null>","entidad":"INVIAS-OTROS","gizscore":"2.699465","fallecidos":"12","gipvalue":"0.006945","tramo":"Puerto Salgar - Barranca","latitud":"6.961981","longitud":"-73.702929","pr":"129","municipio":"BARRANCABERMEJA","departamento":"SANTANDER","divipola":"68081"}
,{"id_mt":"<Null>","entidad":"INVIAS-OTROS","gizscore":"4.179201","fallecidos":"17","gipvalue":"0.000029","tramo":"Barranca - Aguachica","latitud":"7.384705","longitud":"-73.549463","pr":"36","municipio":"SABANA DE TORRES","departamento":"SANTANDER","divipola":"68655"}
,{"id_mt":"<Null>","entidad":"INVIAS-OTROS","gizscore":"2.699465","fallecidos":"12","gipvalue":"0.006945","tramo":"Barranca - Aguachica","latitud":"7.428684","longitud":"-73.545312","pr":"40","municipio":"SABANA DE TORRES","departamento":"SANTANDER","divipola":"68655"}
,{"id_mt":"<Null>","entidad":"INVIAS-OTROS","gizscore":"6.250831","fallecidos":"24","gipvalue":"0","tramo":"Barranca - Aguachica","latitud":"7.733236","longitud":"-73.435159","pr":"82","municipio":"SAN ALBERTO","departamento":"CESAR","divipola":"20710"}
,{"id_mt":"<Null>","entidad":"INVIAS-OTROS","gizscore":"3.291359","fallecidos":"14","gipvalue":"0.000997","tramo":"Barranca - Aguachica","latitud":"7.790466","longitud":"-73.403877","pr":"3","municipio":"SAN ALBERTO","departamento":"CESAR","divipola":"20710"}
,{"id_mt":"<Null>","entidad":"DEPTO","gizscore":"2.292183","fallecidos":"1","gipvalue":"0.021895","latitud":"7.080771","longitud":"-73.185884","pr":"67","municipio":"GIRÓN","departamento":"SANTANDER","divipola":"68307"}
,{"id_mt":"<Null>","entidad":"DEPTO","gizscore":"2.860912","fallecidos":"13","gipvalue":"0.004224","latitud":"7.073695","longitud":"-73.179794","pr":"69","municipio":"GIRÓN","departamento":"SANTANDER","divipola":"68307"}
,{"id_mt":"<Null>","entidad":"DEPTO","gizscore":"3.476334","fallecidos":"6","gipvalue":"0.000508","latitud":"7.0724","longitud":"-73.164142","pr":"9","municipio":"GIRÓN","departamento":"SANTANDER","divipola":"68307"}
,{"id_mt":"<Null>","entidad":"DEPTO","gizscore":"3.309362","fallecidos":"9","gipvalue":"0.000935","tramo":"Piedecuesta-Girón","latitud":"7.064479","longitud":"-73.166287","pr":"8","municipio":"GIRÓN","departamento":"SANTANDER","divipola":"68307"}
,{"id_mt":"<Null>","entidad":"INVIAS-OTROS","gizscore":"4.179201","fallecidos":"17","gipvalue":"0.000029","tramo":"Barbosa - Bucaramanga","latitud":"7.06389","longitud":"-73.095517","pr":"1","municipio":"FLORIDABLANCA","departamento":"SANTANDER","divipola":"68276"}
,{"id_mt":"<Null>","entidad":"INVIAS-OTROS","gizscore":"5.658936","fallecidos":"22","gipvalue":"0","tramo":"Barbosa - Bucaramanga","latitud":"7.045646","longitud":"-73.078284","pr":"87","municipio":"FLORIDABLANCA","departamento":"SANTANDER","divipola":"68276"}
,{"id_mt":"<Null>","entidad":"INVIAS-OTROS","gizscore":"2.699465","fallecidos":"12","gipvalue":"0.006945","tramo":"Barbosa - Bucaramanga","latitud":"7.02063","longitud":"-73.06025","pr":"84","municipio":"PIEDECUESTA","departamento":"SANTANDER","divipola":"68547"}
,{"id_mt":"<Null>","entidad":"INVIAS-OTROS","gizscore":"4.027295","fallecidos":"16","gipvalue":"0.000056","tramo":"Barbosa - Bucaramanga","latitud":"6.99008","longitud":"-73.044162","pr":"79","municipio":"PIEDECUESTA","departamento":"SANTANDER","divipola":"68547"}
,{"id_mt":"<Null>","entidad":"INVIAS-OTROS","gizscore":"4.027295","fallecidos":"9","gipvalue":"0.000056","tramo":"Barbosa - Bucaramanga","latitud":"6.972442","longitud":"-73.044608","pr":"78","municipio":"PIEDECUESTA","departamento":"SANTANDER","divipola":"68547"}
,{"id_mt":"<Null>","entidad":"INVIAS-OTROS","gizscore":"3.309362","fallecidos":"7","gipvalue":"0.000935","tramo":"Variante Pereira","latitud":"4.813499","longitud":"-75.801036","pr":"5","municipio":"PEREIRA","departamento":"RISARALDA","divipola":"66001"}
,{"id_mt":"<Null>","entidad":"INVIAS-OTROS","gizscore":"2.440202","fallecidos":"14","gipvalue":"0.014679","tramo":"Variante Pereira","latitud":"4.810408","longitud":"-75.810555","pr":"8","municipio":"PEREIRA","departamento":"RISARALDA","divipola":"66001"}
,{"id_mt":"<Null>","entidad":"INVIAS-OTROS","gizscore":"2.10757","fallecidos":"10","gipvalue":"0.035068","tramo":"Barranca - Aguachica","latitud":"7.831367","longitud":"-73.425267","pr":"7","municipio":"SAN ALBERTO","departamento":"CESAR","divipola":"20710"}
,{"id_mt":"<Null>","entidad":"INVIAS-OTROS","gizscore":"2.403517","fallecidos":"11","gipvalue":"0.016238","tramo":"Barranca - Aguachica","latitud":"7.896122","longitud":"-73.45797","pr":"15","municipio":"SAN MARTÍN","departamento":"CESAR","divipola":"20770"}
,{"id_mt":"<Null>","entidad":"INVIAS-OTROS","gizscore":"2.10757","fallecidos":"10","gipvalue":"0.035068","tramo":"Barranca - Aguachica","latitud":"7.963444","longitud":"-73.493668","pr":"23","municipio":"SAN MARTÍN","departamento":"CESAR","divipola":"20770"}
,{"id_mt":"<Null>","entidad":"INVIAS-OTROS","gizscore":"2.995412","fallecidos":"13","gipvalue":"0.002741","tramo":"Barranca - Aguachica","latitud":"8.014307","longitud":"-73.520019","pr":"31","municipio":"SAN MARTÍN","departamento":"CESAR","divipola":"20770"}
,{"id_mt":"<Null>","entidad":"INVIAS-OTROS","gizscore":"2.403517","fallecidos":"11","gipvalue":"0.016238","tramo":"Barranca - Aguachica","latitud":"8.07286","longitud":"-73.549345","pr":"37","municipio":"RIO DE ORO","departamento":"CESAR","divipola":"20614"}
,{"id_mt":"<Null>","entidad":"INVIAS-OTROS","gizscore":"2.893293","fallecidos":"4","gipvalue":"0.003812","latitud":"7.928047","longitud":"-72.598278","pr":"74","municipio":"EL ZULIA","departamento":"NORTE DE SANTANDER","divipola":"54261"}
,{"id_mt":"<Null>","entidad":"INVIAS-OTROS","gizscore":"2.022182","fallecidos":"24","gipvalue":"0.043158","tramo":"El Zulia-Cúcuta","latitud":"7.930199","longitud":"-72.590409","pr":"58","municipio":"EL ZULIA","departamento":"NORTE DE SANTANDER","divipola":"54261"}
,{"id_mt":"1G010","entidad":"ANI","gizscore":"3.822062","fallecidos":"1","gipvalue":"0.000132","nombre":"Armenia -Pereira - Manizales","latitud":"4.530654","longitud":"-75.634098","pr":"85","municipio":"CALARCÁ","departamento":"QUINDÍO","divipola":"63130"}
,{"id_mt":"<Null>","entidad":"INVIAS-OTROS","gizscore":"4.512465","fallecidos":"21","gipvalue":"0.0000060","tramo":"Calarcá - Ibagué","latitud":"4.529347","longitud":"-75.632733","pr":"86","municipio":"CALARCÁ","departamento":"QUINDÍO","divipola":"63130"}
,{"id_mt":"1G010","entidad":"ANI","gizscore":"3.328315","fallecidos":"9","gipvalue":"0.000874","tramo":"La Paila - Calarcá","nombre":"Armenia -Pereira - Manizales","latitud":"4.528841","longitud":"-75.634918","pr":"85","municipio":"CALARCÁ","departamento":"QUINDÍO","divipola":"63130"}
,{"id_mt":"<Null>","entidad":"INVIAS-OTROS","gizscore":"4.512465","fallecidos":"11","gipvalue":"0.0000060","tramo":"Calarcá - Ibagué","latitud":"4.525523","longitud":"-75.620722","pr":"6","municipio":"CALARCÁ","departamento":"QUINDÍO","divipola":"63130"}
,{"id_mt":"<Null>","entidad":"INVIAS-OTROS","gizscore":"2.113062","fallecidos":"1","gipvalue":"0.034595","tramo":"Calarcá - Ibagué","latitud":"4.51878","longitud":"-75.606768","pr":"10","municipio":"CALARCÁ","departamento":"QUINDÍO","divipola":"63130"}
,{"id_mt":"<Null>","entidad":"INVIAS-OTROS","gizscore":"2.113062","fallecidos":"9","gipvalue":"0.034595","tramo":"Calarcá - Ibagué","latitud":"4.527243","longitud":"-75.60247","pr":"10","municipio":"CALARCÁ","departamento":"QUINDÍO","divipola":"63130"}
,{"id_mt":"4G012","entidad":"ANI","gizscore":"1.811623","fallecidos":"9","gipvalue":"0.070044","tramo":"Villavicencio-Puente Arimena","nombre":"IP Malla Vial del Meta","latitud":"4.061221","longitud":"-73.147511","pr":"55","municipio":"PUERTO LÓPEZ","departamento":"META","divipola":"50573"}
,{"id_mt":"4G012","entidad":"ANI","gizscore":"3.60872","fallecidos":"14","gipvalue":"0.000308","tramo":"Villavicencio-Puente Arimena","nombre":"IP Malla Vial del Meta","latitud":"4.108613","longitud":"-73.600597","pr":"1","municipio":"VILLAVICENCIO","departamento":"META","divipola":"50001"}
,{"id_mt":"4G012","entidad":"ANI","gizscore":"3.60872","fallecidos":"9","gipvalue":"0.000308","tramo":"Villavicencio-Puente Arimena","nombre":"IP Malla Vial del Meta","latitud":"4.119353","longitud":"-73.613572","pr":"sd","municipio":"VILLAVICENCIO","departamento":"META","divipola":"50001"}
,{"id_mt":"1G009","entidad":"ANI","gizscore":"4.198048","fallecidos":"20","gipvalue":"0.000027","tramo":"Medellín - Santuario","nombre":"Desarrollo Vial del Oriente de Medellín – DEVIMED","latitud":"6.310587","longitud":"-75.554145","pr":"0","municipio":"BELLO","departamento":"ANTIOQUIA","divipola":"5088"}
,{"id_mt":"<Null>","entidad":"DEPTO","gizscore":"4.198048","fallecidos":"8","gipvalue":"0.000027","tramo":"El Hatillo - Girardota - Copacabana - Bello - Med*","latitud":"6.311688","longitud":"-75.556634","pr":"0","municipio":"BELLO","departamento":"ANTIOQUIA","divipola":"5088"}
,{"id_mt":"<Null>","entidad":"DEPTO","gizscore":"4.057085","fallecidos":"18","gipvalue":"0.000050","tramo":"El Hatillo - Girardota - Copacabana - Bello - Med*","latitud":"6.319209","longitud":"-75.554685","pr":"1","municipio":"BELLO","departamento":"ANTIOQUIA","divipola":"5088"}
,{"id_mt":"<Null>","entidad":"DEPTO","gizscore":"2.773603","fallecidos":"4","gipvalue":"0.005544","tramo":"El Hatillo - Girardota - Copacabana - Bello - Med*","latitud":"6.328732","longitud":"-75.551494","pr":"sd","municipio":"BELLO","departamento":"ANTIOQUIA","divipola":"5088"}
,{"id_mt":"<Null>","entidad":"DEPTO","gizscore":"2.872332","fallecidos":"2","gipvalue":"0.004075","tramo":"El Hatillo - Girardota - Copacabana - Bello - Med*","latitud":"6.333141","longitud":"-75.546963","pr":"sd","municipio":"BELLO","departamento":"ANTIOQUIA","divipola":"5088"}
,{"id_mt":"<Null>","entidad":"DEPTO","gizscore":"1.774034","fallecidos":"7","gipvalue":"0.076058","tramo":"El Hatillo - Girardota - Copacabana - Bello - Med*","latitud":"6.335769","longitud":"-75.544387","pr":"sd","municipio":"BELLO","departamento":"ANTIOQUIA","divipola":"5088"}
,{"id_mt":"<Null>","entidad":"DEPTO","gizscore":"2.405296","fallecidos":"8","gipvalue":"0.016159","tramo":"El Hatillo - Girardota - Copacabana - Bello - Med*","latitud":"6.338664","longitud":"-75.541278","pr":"sd","municipio":"BELLO","departamento":"ANTIOQUIA","divipola":"5088"}
,{"id_mt":"<Null>","entidad":"DEPTO","gizscore":"2.747471","fallecidos":"5","gipvalue":"0.006006","tramo":"El Hatillo - Girardota - Copacabana - Bello - Med*","latitud":"6.341784","longitud":"-75.535189","pr":"sd","municipio":"BELLO","departamento":"ANTIOQUIA","divipola":"5088"}
,{"id_mt":"<Null>","entidad":"DEPTO","gizscore":"3.258129","fallecidos":"10","gipvalue":"0.001121","tramo":"El Hatillo - Girardota - Copacabana - Bello - Med*","latitud":"6.34504","longitud":"-75.527145","pr":"sd","municipio":"BELLO","departamento":"ANTIOQUIA","divipola":"5088"}
,{"id_mt":"<Null>","entidad":"DEPTO","gizscore":"5.992653","fallecidos":"8","gipvalue":"0","tramo":"El Hatillo - Girardota - Copacabana - Bello - Med*","latitud":"6.347716","longitud":"-75.520433","pr":"sd","municipio":"BELLO","departamento":"ANTIOQUIA","divipola":"5088"}
,{"id_mt":"<Null>","entidad":"DEPTO","gizscore":"5.531061","fallecidos":"29","gipvalue":"0","tramo":"El Hatillo - Girardota - Copacabana - Bello - Med*","latitud":"6.351463","longitud":"-75.510076","pr":"sd","municipio":"COPACABANA","departamento":"ANTIOQUIA","divipola":"5212"}
,{"id_mt":"<Null>","entidad":"DEPTO","gizscore":"4.505661","fallecidos":"4","gipvalue":"0.0000070","tramo":"El Hatillo - Girardota - Copacabana - Bello - Med*","latitud":"6.356767","longitud":"-75.500166","pr":"sd","municipio":"COPACABANA","departamento":"ANTIOQUIA","divipola":"5212"}
,{"id_mt":"<Null>","entidad":"DEPTO","gizscore":"1.942162","fallecidos":"1","gipvalue":"0.052117","tramo":"El Hatillo - Girardota - Copacabana - Bello - Med*","latitud":"6.390938","longitud":"-75.445768","pr":"sd","municipio":"GIRARDOTA","departamento":"ANTIOQUIA","divipola":"5308"}
,{"id_mt":"<Null>","entidad":"DEPTO","gizscore":"2.283962","fallecidos":"13","gipvalue":"0.022374","tramo":"El Hatillo - Girardota - Copacabana - Bello - Med*","latitud":"6.397619","longitud":"-75.436746","pr":"sd","municipio":"GIRARDOTA","departamento":"ANTIOQUIA","divipola":"5308"}
,{"id_mt":"<Null>","entidad":"DEPTO","gizscore":"2.796662","fallecidos":"8","gipvalue":"0.005163","tramo":"El Hatillo - Girardota - Copacabana - Bello - Med*","latitud":"6.405591","longitud":"-75.426525","pr":"sd","municipio":"GIRARDOTA","departamento":"ANTIOQUIA","divipola":"5308"}
,{"id_mt":"<Null>","entidad":"DEPTO","gizscore":"1.771262","fallecidos":"4","gipvalue":"0.076517","tramo":"El Hatillo - Girardota - Copacabana - Bello - Med*","latitud":"6.411562","longitud":"-75.415101","pr":"sd","municipio":"BARBOSA","departamento":"ANTIOQUIA","divipola":"5079"}
,{"id_mt":"<Null>","entidad":"DEPTO","gizscore":"2.10757","fallecidos":"10","gipvalue":"0.035068","latitud":"6.433996","longitud":"-75.337423","pr":"9","municipio":"BARBOSA","departamento":"ANTIOQUIA","divipola":"5079"}
,{"id_mt":"1G009","entidad":"ANI","gizscore":"1.848127","fallecidos":"6","gipvalue":"0.064584","tramo":"Medellín - Santuario","nombre":"Desarrollo Vial del Oriente de Medellín – DEVIMED","latitud":"6.248448","longitud":"-75.424514","pr":"27","municipio":"GUARNE","departamento":"ANTIOQUIA","divipola":"5318"}
,{"id_mt":"1G009","entidad":"ANI","gizscore":"1.771262","fallecidos":"5","gipvalue":"0.076517","tramo":"Medellín - Santuario","nombre":"Desarrollo Vial del Oriente de Medellín – DEVIMED","latitud":"6.252809","longitud":"-75.429236","pr":"25","municipio":"GUARNE","departamento":"ANTIOQUIA","divipola":"5318"}
,{"id_mt":"1G009","entidad":"ANI","gizscore":"2.33129","fallecidos":"5","gipvalue":"0.019738","tramo":"Medellín - Santuario","nombre":"Desarrollo Vial del Oriente de Medellín – DEVIMED","latitud":"6.32795","longitud":"-75.480226","pr":"15","municipio":"COPACABANA","departamento":"ANTIOQUIA","divipola":"5212"}
,{"id_mt":"1G009","entidad":"ANI","gizscore":"2.33129","fallecidos":"1","gipvalue":"0.019738","tramo":"Medellín - Santuario","nombre":"Desarrollo Vial del Oriente de Medellín – DEVIMED","latitud":"6.328481","longitud":"-75.48361","pr":"15","municipio":"COPACABANA","departamento":"ANTIOQUIA","divipola":"5212"}
,{"id_mt":"1G009","entidad":"ANI","gizscore":"2.019913","fallecidos":"9","gipvalue":"0.043392","tramo":"Medellín - Santuario","nombre":"Desarrollo Vial del Oriente de Medellín – DEVIMED","latitud":"6.323438","longitud":"-75.539697","pr":"2","municipio":"BELLO","departamento":"ANTIOQUIA","divipola":"5088"}
,{"id_mt":"1G009","entidad":"ANI","gizscore":"4.074447","fallecidos":"1","gipvalue":"0.000046","tramo":"Medellín - Santuario","nombre":"Desarrollo Vial del Oriente de Medellín – DEVIMED","latitud":"6.322096","longitud":"-75.544771","pr":"1","municipio":"BELLO","departamento":"ANTIOQUIA","divipola":"5088"}
,{"id_mt":"1G009","entidad":"ANI","gizscore":"3.766984","fallecidos":"1","gipvalue":"0.000165","tramo":"Medellín - Santuario","nombre":"Desarrollo Vial del Oriente de Medellín – DEVIMED","latitud":"6.31862","longitud":"-75.546815","pr":"1","municipio":"BELLO","departamento":"ANTIOQUIA","divipola":"5088"}
,{"id_mt":"1G009","entidad":"ANI","gizscore":"4.057085","fallecidos":"4","gipvalue":"0.000050","tramo":"Medellín - Santuario","nombre":"Desarrollo Vial del Oriente de Medellín – DEVIMED","latitud":"6.313718","longitud":"-75.548768","pr":"0","municipio":"BELLO","departamento":"ANTIOQUIA","divipola":"5088"}
,{"id_mt":"<Null>","entidad":"DEPTO","gizscore":"2.403517","fallecidos":"11","gipvalue":"0.016238","tramo":"Buga- La Victoria","latitud":"4.316067","longitud":"-76.070563","pr":"21","municipio":"ZARZAL","departamento":"VALLE DEL CAUCA","divipola":"76895"}
,{"id_mt":"<Null>","entidad":"DEPTO","gizscore":"3.883253","fallecidos":"16","gipvalue":"0.000103","tramo":"Buga- La Victoria","latitud":"4.357573","longitud":"-76.068876","pr":"26","municipio":"ZARZAL","departamento":"VALLE DEL CAUCA","divipola":"76895"}
,{"id_mt":"<Null>","entidad":"INVIAS-OTROS","gizscore":"2.781367","fallecidos":"17","gipvalue":"0.005413","tramo":"Viterbo-Ansermanuevo","latitud":"4.744053","longitud":"-75.911907","pr":"sd","municipio":"CARTAGO","departamento":"VALLE DEL CAUCA","divipola":"76147"}
,{"id_mt":"<Null>","entidad":"INVIAS-OTROS","gizscore":"1.777049","fallecidos":"1","gipvalue":"0.07556","tramo":"La Victoria-La Virginia","latitud":"4.735231","longitud":"-75.903363","pr":"76","municipio":"CARTAGO","departamento":"VALLE DEL CAUCA","divipola":"76147"}
,{"id_mt":"<Null>","entidad":"INVIAS-OTROS","gizscore":"1.662108","fallecidos":"2","gipvalue":"0.096491","latitud":"4.73792","longitud":"-75.898956","pr":"2","municipio":"CARTAGO","departamento":"VALLE DEL CAUCA","divipola":"76147"}
,{"id_mt":"<Null>","entidad":"DEPTO","gizscore":"4.771095","fallecidos":"19","gipvalue":"0.0000020","tramo":"Buga- La Victoria","latitud":"4.168398","longitud":"-76.173499","pr":"0","municipio":"ANDALUCÍA","departamento":"VALLE DEL CAUCA","divipola":"76036"}
,{"id_mt":"<Null>","entidad":"DEPTO","gizscore":"4.179201","fallecidos":"17","gipvalue":"0.000029","tramo":"Buga- La Victoria","latitud":"4.037479","longitud":"-76.210181","pr":"87","municipio":"SAN PEDRO","departamento":"VALLE DEL CAUCA","divipola":"76670"}
,{"id_mt":"<Null>","entidad":"DEPTO","gizscore":"5.954884","fallecidos":"23","gipvalue":"0","tramo":"Buga- La Victoria","latitud":"4.000509","longitud":"-76.229883","pr":"82","municipio":"SAN PEDRO","departamento":"VALLE DEL CAUCA","divipola":"76670"}
,{"id_mt":"<Null>","entidad":"DEPTO","gizscore":"2.143707","fallecidos":"9","gipvalue":"0.032056","tramo":"Buga- La Victoria","latitud":"3.975317","longitud":"-76.248638","pr":"78","municipio":"SAN PEDRO","departamento":"VALLE DEL CAUCA","divipola":"76670"}
,{"id_mt":"<Null>","entidad":"DEPTO","gizscore":"3.651162","fallecidos":"7","gipvalue":"0.000261","tramo":"Buga- La Victoria","latitud":"3.964974","longitud":"-76.261151","pr":"sd","municipio":"SAN PEDRO","departamento":"VALLE DEL CAUCA","divipola":"76670"}
,{"id_mt":"<Null>","entidad":"DEPTO","gizscore":"4.334761","fallecidos":"14","gipvalue":"0.000015","tramo":"Buga- La Victoria","latitud":"3.952215","longitud":"-76.27109","pr":"75","municipio":"BUGA","departamento":"VALLE DEL CAUCA","divipola":"76111"}
,{"id_mt":"<Null>","entidad":"DEPTO","gizscore":"4.163861","fallecidos":"13","gipvalue":"0.000031","tramo":"Buga- La Victoria","latitud":"3.938814","longitud":"-76.279742","pr":"73","municipio":"BUGA","departamento":"VALLE DEL CAUCA","divipola":"76111"}
,{"id_mt":"<Null>","entidad":"DEPTO","gizscore":"2.967562","fallecidos":"6","gipvalue":"0.003002","tramo":"Buga- La Victoria","latitud":"3.928157","longitud":"-76.28615","pr":"71","municipio":"BUGA","departamento":"VALLE DEL CAUCA","divipola":"76111"}
,{"id_mt":"<Null>","entidad":"DEPTO","gizscore":"2.113062","fallecidos":"7","gipvalue":"0.034595","tramo":"Buga- La Victoria","latitud":"3.921209","longitud":"-76.29417","pr":"70","municipio":"BUGA","departamento":"VALLE DEL CAUCA","divipola":"76111"}
,{"id_mt":"<Null>","entidad":"DEPTO","gizscore":"2.283962","fallecidos":"8","gipvalue":"0.022374","tramo":"Buga- La Victoria","latitud":"3.909898","longitud":"-76.306519","pr":"68","municipio":"BUGA","departamento":"VALLE DEL CAUCA","divipola":"76111"}
,{"id_mt":"<Null>","entidad":"DEPTO","gizscore":"1.848127","fallecidos":"7","gipvalue":"0.064584","tramo":"Buga- La Victoria","latitud":"3.897147","longitud":"-76.312121","pr":"118","municipio":"BUGA","departamento":"VALLE DEL CAUCA","divipola":"76111"}
,{"id_mt":"<Null>","entidad":"INVIAS-OTROS","gizscore":"2.198885","fallecidos":"7","gipvalue":"0.027886","tramo":"Loboguerrero - Buga","latitud":"3.891756","longitud":"-76.317133","pr":"117","municipio":"BUGA","departamento":"VALLE DEL CAUCA","divipola":"76111"}
,{"id_mt":"<Null>","entidad":"INVIAS-OTROS","gizscore":"4.771095","fallecidos":"19","gipvalue":"0.0000020","tramo":"Candelaria-Buga","latitud":"3.835801","longitud":"-76.302609","pr":"59","municipio":"BUGA","departamento":"VALLE DEL CAUCA","divipola":"76111"}
,{"id_mt":"<Null>","entidad":"INVIAS-OTROS","gizscore":"4.655158","fallecidos":"18","gipvalue":"0.0000030","tramo":"Candelaria-Buga","latitud":"3.785473","longitud":"-76.319112","pr":"55","municipio":"GUACARÍ","departamento":"VALLE DEL CAUCA","divipola":"76318"}
,{"id_mt":"<Null>","entidad":"INVIAS-OTROS","gizscore":"4.655158","fallecidos":"10","gipvalue":"0.0000030","tramo":"Candelaria-Buga","latitud":"3.770634","longitud":"-76.326015","pr":"53","municipio":"GUACARÍ","departamento":"VALLE DEL CAUCA","divipola":"76318"}
,{"id_mt":"<Null>","entidad":"INVIAS-OTROS","gizscore":"2.10757","fallecidos":"10","gipvalue":"0.035068","tramo":"Candelaria-Buga","latitud":"3.745999","longitud":"-76.324502","pr":"49","municipio":"GUACARÍ","departamento":"VALLE DEL CAUCA","divipola":"76318"}
,{"id_mt":"<Null>","entidad":"INVIAS-OTROS","gizscore":"1.942162","fallecidos":"8","gipvalue":"0.052117","tramo":"Candelaria-Buga","latitud":"3.684455","longitud":"-76.307218","pr":"42","municipio":"EL CERRITO","departamento":"VALLE DEL CAUCA","divipola":"76248"}
,{"id_mt":"<Null>","entidad":"INVIAS-OTROS","gizscore":"7.138672","fallecidos":"27","gipvalue":"0","tramo":"Cali - Palmira","latitud":"3.517906","longitud":"-76.366127","pr":"13","municipio":"PALMIRA","departamento":"VALLE DEL CAUCA","divipola":"76520"}
,{"id_mt":"<Null>","entidad":"INVIAS-OTROS","gizscore":"5.067042","fallecidos":"20","gipvalue":"0","tramo":"Cali - Palmira","latitud":"3.507193","longitud":"-76.413909","pr":"9","municipio":"PALMIRA","departamento":"VALLE DEL CAUCA","divipola":"76520"}
,{"id_mt":"<Null>","entidad":"INVIAS-OTROS","gizscore":"1.771262","fallecidos":"5","gipvalue":"0.076517","latitud":"3.551248","longitud":"-76.477194","pr":"sd","municipio":"PALMIRA","departamento":"VALLE DEL CAUCA","divipola":"76520"}
,{"id_mt":"<Null>","entidad":"INVIAS-OTROS","gizscore":"2.562283","fallecidos":"7","gipvalue":"0.010399","tramo":"Cali-Dagua","latitud":"3.451146","longitud":"-76.539785","pr":"sd","municipio":"CALI","departamento":"VALLE DEL CAUCA","divipola":"76001"}
,{"id_mt":"<Null>","entidad":"INVIAS-OTROS","gizscore":"1.771262","fallecidos":"11","gipvalue":"0.076517","tramo":"Cali-Dagua","latitud":"3.452461","longitud":"-76.553232","pr":"sd","municipio":"CALI","departamento":"VALLE DEL CAUCA","divipola":"76001"}
,{"id_mt":"<Null>","entidad":"INVIAS-OTROS","gizscore":"2.454862","fallecidos":"1","gipvalue":"0.014094","tramo":"Cali-Dagua","latitud":"3.451813","longitud":"-76.566716","pr":"sd","municipio":"CALI","departamento":"VALLE DEL CAUCA","divipola":"76001"}
,{"id_mt":"<Null>","entidad":"INVIAS-OTROS","gizscore":"1.771262","fallecidos":"11","gipvalue":"0.076517","tramo":"Cali-Dagua","latitud":"3.45358","longitud":"-76.571696","pr":"sd","municipio":"CALI","departamento":"VALLE DEL CAUCA","divipola":"76001"}
,{"id_mt":"<Null>","entidad":"INVIAS-OTROS","gizscore":"2.625762","fallecidos":"7","gipvalue":"0.008646","tramo":"Cali-Dagua","latitud":"3.461738","longitud":"-76.585255","pr":"9","municipio":"CALI","departamento":"VALLE DEL CAUCA","divipola":"76001"}
,{"id_mt":"<Null>","entidad":"INVIAS-OTROS","gizscore":"1.93442","fallecidos":"5","gipvalue":"0.053062","tramo":"Cali-Dagua","latitud":"3.659968","longitud":"-76.687838","pr":"48","municipio":"DAGUA","departamento":"VALLE DEL CAUCA","divipola":"76233"}
,{"id_mt":"<Null>","entidad":"INVIAS-OTROS","gizscore":"2.283962","fallecidos":"9","gipvalue":"0.022374","tramo":"Buenaventura-Citronela","latitud":"3.886307","longitud":"-76.957788","pr":"16","municipio":"BUENAVENTURA","departamento":"VALLE DEL CAUCA","divipola":"76109"}
,{"id_mt":"<Null>","entidad":"INVIAS-OTROS","gizscore":"2.283962","fallecidos":"6","gipvalue":"0.022374","tramo":"Buenaventura-Citronela","latitud":"3.877498","longitud":"-76.969294","pr":"15","municipio":"BUENAVENTURA","departamento":"VALLE DEL CAUCA","divipola":"76109"}
,{"id_mt":"<Null>","entidad":"INVIAS-OTROS","gizscore":"3.822062","fallecidos":"7","gipvalue":"0.000132","tramo":"Buenaventura-Citronela","latitud":"3.870116","longitud":"-76.980122","pr":"12","municipio":"BUENAVENTURA","departamento":"VALLE DEL CAUCA","divipola":"76109"}
,{"id_mt":"<Null>","entidad":"INVIAS-OTROS","gizscore":"4.027295","fallecidos":"18","gipvalue":"0.000056","tramo":"Buenaventura-Citronela","latitud":"3.867071","longitud":"-76.989767","pr":"12","municipio":"BUENAVENTURA","departamento":"VALLE DEL CAUCA","divipola":"76109"}
,{"id_mt":"<Null>","entidad":"INVIAS-OTROS","gizscore":"2.113062","fallecidos":"11","gipvalue":"0.034595","tramo":"Loboguerrero - Buga","latitud":"3.892281","longitud":"-76.330593","pr":"117","municipio":"BUGA","departamento":"VALLE DEL CAUCA","divipola":"76111"}
,{"id_mt":"<Null>","entidad":"INVIAS-OTROS","gizscore":"4.771095","fallecidos":"19","gipvalue":"0.0000020","tramo":"Aguachica  - San Roque","latitud":"8.317272","longitud":"-73.59724","pr":"67","municipio":"AGUACHICA","departamento":"CESAR","divipola":"20011"}
,{"id_mt":"<Null>","entidad":"INVIAS-OTROS","gizscore":"4.475148","fallecidos":"18","gipvalue":"0.0000080","tramo":"Aguachica  - San Roque","latitud":"8.615513","longitud":"-73.635588","pr":"1","municipio":"LA GLORIA","departamento":"CESAR","divipola":"20383"}
,{"id_mt":"<Null>","entidad":"INVIAS-OTROS","gizscore":"3.291359","fallecidos":"14","gipvalue":"0.000997","tramo":"Aguachica  - San Roque","latitud":"8.678751","longitud":"-73.655793","pr":"9","municipio":"PELAYA","departamento":"CESAR","divipola":"20550"}
,{"id_mt":"3G012","entidad":"ANI","gizscore":"2.403517","fallecidos":"11","gipvalue":"0.016238","tramo":"Carmen de Bolívar-Bosconia","nombre":"Ruta del Sol 3","latitud":"9.955669","longitud":"-73.917679","pr":"22","municipio":"BOSCONIA","departamento":"CESAR","divipola":"20060"}
,{"id_mt":"3G012","entidad":"ANI","gizscore":"3.883253","fallecidos":"16","gipvalue":"0.000103","tramo":"Bosconia - Cienaga","nombre":"Ruta del Sol 3","latitud":"9.93861","longitud":"-73.862205","pr":"84","municipio":"BOSCONIA","departamento":"CESAR","divipola":"20060"}
,{"id_mt":"3G012","entidad":"ANI","gizscore":"1.811623","fallecidos":"9","gipvalue":"0.070044","tramo":"San Roque - Bosconia","nombre":"Ruta del Sol 3","latitud":"9.607065","longitud":"-73.612902","pr":"38","municipio":"EL PASO","departamento":"CESAR","divipola":"20250"}
,{"id_mt":"3G012","entidad":"ANI","gizscore":"2.10757","fallecidos":"10","gipvalue":"0.035068","tramo":"San Roque - Bosconia","nombre":"Ruta del Sol 3","latitud":"9.319363","longitud":"-73.516691","pr":"4","municipio":"CURUMANÍ","departamento":"CESAR","divipola":"20228"}
,{"id_mt":"<Null>","entidad":"INVIAS-OTROS","gizscore":"1.811623","fallecidos":"9","gipvalue":"0.070044","tramo":"Aguachica  - San Roque","latitud":"9.212012","longitud":"-73.526195","pr":"79","municipio":"CURUMANÍ","departamento":"CESAR","divipola":"20228"}
,{"id_mt":"<Null>","entidad":"INVIAS-OTROS","gizscore":"2.10757","fallecidos":"10","gipvalue":"0.035068","tramo":"Aguachica  - San Roque","latitud":"8.988073","longitud":"-73.629476","pr":"45","municipio":"PAILITAS","departamento":"CESAR","divipola":"20517"}
,{"id_mt":"<Null>","entidad":"INVIAS-OTROS","gizscore":"5.954884","fallecidos":"23","gipvalue":"0","tramo":"Aguachica  - San Roque","latitud":"8.91766","longitud":"-73.642138","pr":"37","municipio":"PAILITAS","departamento":"CESAR","divipola":"20517"}
,{"id_mt":"<Null>","entidad":"INVIAS-OTROS","gizscore":"1.848127","fallecidos":"7","gipvalue":"0.064584","tramo":"Yumbo - Yotoco - Buga","latitud":"3.597351","longitud":"-76.483492","pr":"14","municipio":"YUMBO","departamento":"VALLE DEL CAUCA","divipola":"76892"}
,{"id_mt":"<Null>","entidad":"INVIAS-OTROS","gizscore":"3.655345","fallecidos":"5","gipvalue":"0.000257","tramo":"Yumbo - Yotoco - Buga","latitud":"3.591317","longitud":"-76.483483","pr":"13","municipio":"YUMBO","departamento":"VALLE DEL CAUCA","divipola":"76892"}
,{"id_mt":"<Null>","entidad":"INVIAS-OTROS","gizscore":"4.449778","fallecidos":"10","gipvalue":"0.0000090","tramo":"Yumbo - Yotoco - Buga","latitud":"3.585137","longitud":"-76.484617","pr":"13","municipio":"YUMBO","departamento":"VALLE DEL CAUCA","divipola":"76892"}
,{"id_mt":"<Null>","entidad":"INVIAS-OTROS","gizscore":"4.582184","fallecidos":"18","gipvalue":"0.0000050","tramo":"Yumbo - Yotoco - Buga","latitud":"3.577806","longitud":"-76.486178","pr":"11","municipio":"YUMBO","departamento":"VALLE DEL CAUCA","divipola":"76892"}
,{"id_mt":"<Null>","entidad":"INVIAS-OTROS","gizscore":"4.317373","fallecidos":"8","gipvalue":"0.000016","tramo":"Yumbo - Yotoco - Buga","latitud":"3.5689","longitud":"-76.485162","pr":"10","municipio":"YUMBO","departamento":"VALLE DEL CAUCA","divipola":"76892"}
,{"id_mt":"<Null>","entidad":"INVIAS-OTROS","gizscore":"3.714522","fallecidos":"8","gipvalue":"0.000204","tramo":"Yumbo - Yotoco - Buga","latitud":"3.563146","longitud":"-76.489157","pr":"8","municipio":"YUMBO","departamento":"VALLE DEL CAUCA","divipola":"76892"}
,{"id_mt":"<Null>","entidad":"INVIAS-OTROS","gizscore":"1.996146","fallecidos":"3","gipvalue":"0.045918","tramo":"Yumbo - Yotoco - Buga","latitud":"3.559836","longitud":"-76.492298","pr":"8","municipio":"YUMBO","departamento":"VALLE DEL CAUCA","divipola":"76892"}
,{"id_mt":"4G017","entidad":"ANI","gizscore":"4.334761","fallecidos":"19","gipvalue":"0.000015","tramo":"Neiva-Girardot","nombre":"IP  –  Neiva – Espinal - Girardot","latitud":"4.150533","longitud":"-74.888622","pr":"3","municipio":"ESPINAL","departamento":"TOLIMA","divipola":"73268"}
,{"id_mt":"<Null>","entidad":"INVIAS-OTROS","gizscore":"1.811623","fallecidos":"9","gipvalue":"0.070044","tramo":"San Roque-La Paz","latitud":"9.326617","longitud":"-73.488783","pr":"6","municipio":"CURUMANÍ","departamento":"CESAR","divipola":"20228"}
,{"id_mt":"<Null>","entidad":"INVIAS-OTROS","gizscore":"4.771095","fallecidos":"19","gipvalue":"0.0000020","tramo":"San Roque-La Paz","latitud":"10.289912","longitud":"-73.206808","pr":"128","municipio":"SAN DIEGO","departamento":"CESAR","divipola":"20750"}
,{"id_mt":"<Null>","entidad":"CIUDAD","gizscore":"2.699465","fallecidos":"12","gipvalue":"0.006945","latitud":"10.46437","longitud":"-73.253769","pr":"sd","municipio":"VALLEDUPAR","departamento":"CESAR","divipola":"20001"}
,{"id_mt":"<Null>","entidad":"INVIAS-OTROS","gizscore":"2.10757","fallecidos":"10","gipvalue":"0.035068","tramo":"La Paz - Maicao","latitud":"10.890788","longitud":"-72.842541","pr":"6","municipio":"FONSECA","departamento":"LA GUAJIRA","divipola":"44279"}
,{"id_mt":"1G003","entidad":"ANI","gizscore":"5.954884","fallecidos":"23","gipvalue":"0","tramo":"Santa Marta-Maicao-Paraguachón","nombre":"Santa Marta - Paraguachón","latitud":"11.371088","longitud":"-72.191169","pr":"81","municipio":"MAICAO","departamento":"LA GUAJIRA","divipola":"44430"}
,{"id_mt":"1G003","entidad":"ANI","gizscore":"2.403517","fallecidos":"11","gipvalue":"0.016238","tramo":"Santa Marta-Maicao-Paraguachón","nombre":"Santa Marta - Paraguachón","latitud":"11.506861","longitud":"-72.76381","pr":"15","municipio":"MANAURE","departamento":"LA GUAJIRA","divipola":"44560"}
,{"id_mt":"1G003","entidad":"ANI","gizscore":"4.179201","fallecidos":"17","gipvalue":"0.000029","tramo":"Santa Marta-Maicao-Paraguachón","nombre":"Santa Marta - Paraguachón","latitud":"11.519362","longitud":"-72.954554","pr":"88","municipio":"RIOHACHA","departamento":"LA GUAJIRA","divipola":"44001"}
,{"id_mt":"1G003","entidad":"ANI","gizscore":"2.10757","fallecidos":"10","gipvalue":"0.035068","tramo":"Santa Marta-Maicao-Paraguachón","nombre":"Santa Marta - Paraguachón","latitud":"11.258772","longitud":"-73.160237","pr":"50","municipio":"DIBULLA","departamento":"LA GUAJIRA","divipola":"44090"}
,{"id_mt":"1G003","entidad":"ANI","gizscore":"2.403517","fallecidos":"11","gipvalue":"0.016238","tramo":"Santa Marta-Maicao-Paraguachón","nombre":"Santa Marta - Paraguachón","latitud":"11.229646","longitud":"-73.224032","pr":"42","municipio":"DIBULLA","departamento":"LA GUAJIRA","divipola":"44090"}
,{"id_mt":"1G003","entidad":"ANI","gizscore":"1.811623","fallecidos":"9","gipvalue":"0.070044","tramo":"Santa Marta-Maicao-Paraguachón","nombre":"Santa Marta - Paraguachón","latitud":"11.248769","longitud":"-73.779344","pr":"48","municipio":"SANTA MARTA","departamento":"MAGDALENA","divipola":"47001"}
,{"id_mt":"1G003","entidad":"ANI","gizscore":"2.699465","fallecidos":"12","gipvalue":"0.006945","tramo":"Santa Marta-Maicao-Paraguachón","nombre":"Santa Marta - Paraguachón","latitud":"11.276734","longitud":"-74.039509","pr":"16","municipio":"SANTA MARTA","departamento":"MAGDALENA","divipola":"47001"}
,{"id_mt":"<Null>","entidad":"DEPTO","gizscore":"6.842725","fallecidos":"26","gipvalue":"0","tramo":"Cienaga - Barranquilla","latitud":"11.00709","longitud":"-74.237504","pr":"62","municipio":"CIÉNAGA","departamento":"MAGDALENA","divipola":"47189"}
,{"id_mt":"3G012","entidad":"ANI","gizscore":"3.883253","fallecidos":"16","gipvalue":"0.000103","tramo":"Bosconia - Cienaga","nombre":"Ruta del Sol 3","latitud":"10.982643","longitud":"-74.194628","pr":"96","municipio":"CIÉNAGA","departamento":"MAGDALENA","divipola":"47189"}
,{"id_mt":"<Null>","entidad":"DEPTO","gizscore":"2.403517","fallecidos":"11","gipvalue":"0.016238","tramo":"Cienaga - Barranquilla","latitud":"10.993441","longitud":"-74.28516","pr":"56","municipio":"PUEBLOVIEJO","departamento":"MAGDALENA","divipola":"47570"}
,{"id_mt":"3G012","entidad":"ANI","gizscore":"2.10757","fallecidos":"10","gipvalue":"0.035068","tramo":"Bosconia - Cienaga","nombre":"Ruta del Sol 3","latitud":"10.893418","longitud":"-74.15375","pr":"86","municipio":"ZONA BANANERA","departamento":"MAGDALENA","divipola":"47980"}
,{"id_mt":"3G012","entidad":"ANI","gizscore":"2.699465","fallecidos":"12","gipvalue":"0.006945","tramo":"Bosconia - Cienaga","nombre":"Ruta del Sol 3","latitud":"10.654616","longitud":"-74.162503","pr":"54","municipio":"ZONA BANANERA","departamento":"MAGDALENA","divipola":"47980"}
,{"id_mt":"3G012","entidad":"ANI","gizscore":"1.811623","fallecidos":"9","gipvalue":"0.070044","tramo":"Bosconia - Cienaga","nombre":"Ruta del Sol 3","latitud":"10.027275","longitud":"-73.911137","pr":"5","municipio":"BOSCONIA","departamento":"CESAR","divipola":"20060"}
,{"id_mt":"<Null>","entidad":"DEPTO","gizscore":"2.10757","fallecidos":"10","gipvalue":"0.035068","tramo":"Cienaga - Barranquilla","latitud":"10.974471","longitud":"-74.342166","pr":"50","municipio":"PUEBLOVIEJO","departamento":"MAGDALENA","divipola":"47570"}
,{"id_mt":"<Null>","entidad":"DEPTO","gizscore":"2.403517","fallecidos":"11","gipvalue":"0.016238","tramo":"Cienaga - Barranquilla","latitud":"11.00656","longitud":"-74.671399","pr":"12","municipio":"SITIONUEVO","departamento":"MAGDALENA","divipola":"47745"}
,{"id_mt":"3G008","entidad":"ANI","gizscore":"9.50625","fallecidos":"35","gipvalue":"0","tramo":"Barranquilla - Malambo - Palmar de Varela","nombre":"Ruta Caribe","latitud":"10.920684","longitud":"-74.775729","pr":"78","municipio":"SOLEDAD","departamento":"ATLÁNTICO","divipola":"8758"}
,{"id_mt":"4G005","entidad":"ANI","gizscore":"1.811623","fallecidos":"9","gipvalue":"0.070044","tramo":"Barranquilla - Cartagena","nombre":"Cartagena – Barranquilla – “Circunvalar de la Prosperidad”","latitud":"11.013682","longitud":"-74.880656","pr":"104","municipio":"PUERTO COLOMBIA","departamento":"ATLÁNTICO","divipola":"8573"}
,{"id_mt":"4G005","entidad":"ANI","gizscore":"1.811623","fallecidos":"9","gipvalue":"0.070044","tramo":"Barranquilla - Cartagena","nombre":"Cartagena – Barranquilla – “Circunvalar de la Prosperidad”","latitud":"10.543179","longitud":"-75.460686","pr":"12","municipio":"CARTAGENA DE INDIAS","departamento":"BOLÍVAR","divipola":"13001"}
,{"id_mt":"3G008","entidad":"ANI","gizscore":"2.796662","fallecidos":"10","gipvalue":"0.005163","tramo":"Sincerin - Arjona - Turbaco - Cartagena","nombre":"Ruta Caribe","latitud":"10.338313","longitud":"-75.418314","pr":"92","municipio":"TURBACO","departamento":"BOLÍVAR","divipola":"13836"}
,{"id_mt":"3G008","entidad":"ANI","gizscore":"2.980858","fallecidos":"10","gipvalue":"0.002874","tramo":"Sincerin - Arjona - Turbaco - Cartagena","nombre":"Ruta Caribe","latitud":"10.332981","longitud":"-75.410213","pr":"92","municipio":"TURBACO","departamento":"BOLÍVAR","divipola":"13836"}
,{"id_mt":"3G008","entidad":"ANI","gizscore":"2.10757","fallecidos":"10","gipvalue":"0.035068","tramo":"Cartagena-Barranquilla (Cordialidad)","nombre":"Ruta Caribe","latitud":"10.596021","longitud":"-75.294129","pr":"29","municipio":"SANTA CATALINA","departamento":"BOLÍVAR","divipola":"13673"}
,{"id_mt":"<Null>","entidad":"INVIAS-OTROS","gizscore":"5.872861","fallecidos":"4","gipvalue":"0","latitud":"10.863689","longitud":"-74.778801","pr":"72","municipio":"MALAMBO","departamento":"ATLÁNTICO","divipola":"8433"}
,{"id_mt":"3G008","entidad":"ANI","gizscore":"6.538746","fallecidos":"33","gipvalue":"0","tramo":"Barranquilla - Malambo - Palmar de Varela","nombre":"Ruta Caribe","latitud":"10.852572","longitud":"-74.77184","pr":"71","municipio":"MALAMBO","departamento":"ATLÁNTICO","divipola":"8433"}
,{"id_mt":"3G008","entidad":"ANI","gizscore":"3.291359","fallecidos":"14","gipvalue":"0.000997","tramo":"Barranquilla - Malambo - Palmar de Varela","nombre":"Ruta Caribe","latitud":"10.771084","longitud":"-74.75912","pr":"62","municipio":"SANTO TOMÁS","departamento":"ATLÁNTICO","divipola":"8685"}
,{"id_mt":"3G008","entidad":"ANI","gizscore":"2.699465","fallecidos":"12","gipvalue":"0.006945","tramo":"Barranquilla - Malambo - Palmar de Varela","nombre":"Ruta Caribe","latitud":"10.748465","longitud":"-74.757868","pr":"58","municipio":"SANTO TOMÁS","departamento":"ATLÁNTICO","divipola":"8685"}
,{"id_mt":"4G018","entidad":"ANI","gizscore":"2.403517","fallecidos":"11","gipvalue":"0.016238","tramo":"Carreto - Barranquilla","nombre":"Puerta de Hierro – Palmar de Varela y Carreto – Cruz del Viso","latitud":"10.646053","longitud":"-74.760489","pr":"46","municipio":"PONEDERA","departamento":"ATLÁNTICO","divipola":"8560"}
,{"id_mt":"4G018","entidad":"ANI","gizscore":"2.10757","fallecidos":"10","gipvalue":"0.035068","tramo":"Carreto - Barranquilla","nombre":"Puerta de Hierro – Palmar de Varela y Carreto – Cruz del Viso","latitud":"10.571941","longitud":"-74.791658","pr":"38","municipio":"PONEDERA","departamento":"ATLÁNTICO","divipola":"8560"}
,{"id_mt":"3G008","entidad":"ANI","gizscore":"2.403517","fallecidos":"11","gipvalue":"0.016238","tramo":"Carreto-Cartagena","nombre":"Ruta Caribe","latitud":"10.136478","longitud":"-75.25549","pr":"60","municipio":"MAHATES","departamento":"BOLÍVAR","divipola":"13433"}
,{"id_mt":"3G008","entidad":"ANI","gizscore":"2.403517","fallecidos":"11","gipvalue":"0.016238","tramo":"Sincerin - Arjona - Turbaco - Cartagena","nombre":"Ruta Caribe","latitud":"10.250748","longitud":"-75.34756","pr":"78","municipio":"ARJONA","departamento":"BOLÍVAR","divipola":"13052"}
,{"id_mt":"<Null>","entidad":"INVIAS-OTROS","gizscore":"2.403517","fallecidos":"11","gipvalue":"0.016238","latitud":"9.380651","longitud":"-75.682601","pr":"3","municipio":"COVEÑAS","departamento":"SUCRE","divipola":"70221"}
,{"id_mt":"4G016","entidad":"ANI","gizscore":"2.10757","fallecidos":"10","gipvalue":"0.035068","tramo":"San Pelayo-Lorica","nombre":"IP – Antioquia – Bolívar","latitud":"9.030229","longitud":"-75.827469","pr":"25","municipio":"COTORRA","departamento":"CÓRDOBA","divipola":"23300"}
,{"id_mt":"4G016","entidad":"ANI","gizscore":"11.873827","fallecidos":"43","gipvalue":"0","tramo":"Cereté - San Pelayo","nombre":"IP – Antioquia – Bolívar","latitud":"8.920309","longitud":"-75.812669","pr":"13","municipio":"CERETÉ","departamento":"CÓRDOBA","divipola":"23162"}
,{"id_mt":"4G016","entidad":"ANI","gizscore":"1.93442","fallecidos":"1","gipvalue":"0.053062","tramo":"Arboletes-Montería","nombre":"IP – Antioquia – Bolívar","latitud":"8.781073","longitud":"-75.894108","pr":"60","municipio":"MONTERÍA","departamento":"CÓRDOBA","divipola":"23001"}
,{"id_mt":"4G026","entidad":"ANI","gizscore":"2.403517","fallecidos":"11","gipvalue":"0.016238","tramo":"Chigorodó-Turbo","nombre":"Autopistas al Mar 2","latitud":"8.076931","longitud":"-76.673802","pr":"6","municipio":"TURBO","departamento":"ANTIOQUIA","divipola":"5837"}
,{"id_mt":"4G026","entidad":"ANI","gizscore":"8.026514","fallecidos":"30","gipvalue":"0","tramo":"Chigorodó-Turbo","nombre":"Autopistas al Mar 2","latitud":"8.005361","longitud":"-76.640697","pr":"16","municipio":"TURBO","departamento":"ANTIOQUIA","divipola":"5837"}
,{"id_mt":"4G026","entidad":"ANI","gizscore":"6.250831","fallecidos":"24","gipvalue":"0","tramo":"Chigorodó-Turbo","nombre":"Autopistas al Mar 2","latitud":"7.873917","longitud":"-76.635127","pr":"30","municipio":"APARTADÓ","departamento":"ANTIOQUIA","divipola":"5045"}
,{"id_mt":"4G026","entidad":"ANI","gizscore":"5.067042","fallecidos":"20","gipvalue":"0","tramo":"Chigorodó-Turbo","nombre":"Autopistas al Mar 2","latitud":"7.795214","longitud":"-76.653741","pr":"40","municipio":"APARTADÓ","departamento":"ANTIOQUIA","divipola":"5045"}
,{"id_mt":"4G026","entidad":"ANI","gizscore":"6.250831","fallecidos":"24","gipvalue":"0","tramo":"Chigorodó-Turbo","nombre":"Autopistas al Mar 2","latitud":"7.724083","longitud":"-76.667336","pr":"48","municipio":"CAREPA","departamento":"ANTIOQUIA","divipola":"5147"}
,{"id_mt":"4G026","entidad":"ANI","gizscore":"2.352995","fallecidos":"3","gipvalue":"0.018623","tramo":"Chigorodó-Turbo","nombre":"Autopistas al Mar 2","latitud":"7.676232","longitud":"-76.678499","pr":"53","municipio":"CHIGORODÓ","departamento":"ANTIOQUIA","divipola":"5172"}
,{"id_mt":"4G026","entidad":"ANI","gizscore":"2.352995","fallecidos":"14","gipvalue":"0.018623","tramo":"Santafé de Antioquía - Chigorodó","nombre":"Autopistas al Mar 2","latitud":"7.666802","longitud":"-76.677201","pr":"0","municipio":"CHIGORODÓ","departamento":"ANTIOQUIA","divipola":"5172"}
,{"id_mt":"4G026","entidad":"ANI","gizscore":"3.883253","fallecidos":"16","gipvalue":"0.000103","tramo":"Santafé de Antioquía - Chigorodó","nombre":"Autopistas al Mar 2","latitud":"7.619732","longitud":"-76.649909","pr":"6","municipio":"CHIGORODÓ","departamento":"ANTIOQUIA","divipola":"5172"}
,{"id_mt":"<Null>","entidad":"INVIAS-OTROS","gizscore":"1.811623","fallecidos":"9","gipvalue":"0.070044","tramo":"Lorica - Chinú","latitud":"9.236171","longitud":"-75.64841","pr":"19","municipio":"MOMIL","departamento":"CÓRDOBA","divipola":"23464"}
,{"id_mt":"3G006","entidad":"ANI","gizscore":"1.942162","fallecidos":"4","gipvalue":"0.052117","tramo":"Planeta Rica - Sincelejo","nombre":"Córdoba – Sucre","latitud":"8.957414","longitud":"-75.453161","pr":"72","municipio":"SAHAGÚN","departamento":"CÓRDOBA","divipola":"23660"}
,{"id_mt":"3G006","entidad":"ANI","gizscore":"1.811623","fallecidos":"9","gipvalue":"0.070044","tramo":"Montería-La Ye","nombre":"Córdoba – Sucre","latitud":"8.879113","longitud":"-75.662968","pr":"14","municipio":"CIÉNAGA DE ORO","departamento":"CÓRDOBA","divipola":"23189"}
,{"id_mt":"3G006","entidad":"ANI","gizscore":"3.883253","fallecidos":"16","gipvalue":"0.000103","tramo":"Montería-La Ye","nombre":"Córdoba – Sucre","latitud":"8.885013","longitud":"-75.720018","pr":"8","municipio":"CIÉNAGA DE ORO","departamento":"CÓRDOBA","divipola":"23189"}
,{"id_mt":"3G006","entidad":"ANI","gizscore":"2.143707","fallecidos":"6","gipvalue":"0.032056","tramo":"Montería-La Ye","nombre":"Córdoba – Sucre","latitud":"8.887841","longitud":"-75.752688","pr":"4","municipio":"CERETÉ","departamento":"CÓRDOBA","divipola":"23162"}
,{"id_mt":"3G006","entidad":"ANI","gizscore":"2.995412","fallecidos":"13","gipvalue":"0.002741","tramo":"Montería-La Ye","nombre":"Córdoba – Sucre","latitud":"8.831702","longitud":"-75.834453","pr":"sd","municipio":"MONTERÍA","departamento":"CÓRDOBA","divipola":"23001"}
,{"id_mt":"4G016","entidad":"ANI","gizscore":"1.93442","fallecidos":"1","gipvalue":"0.053062","tramo":"Arboletes-Montería","nombre":"IP – Antioquia – Bolívar","latitud":"8.753386","longitud":"-75.895939","pr":"63","municipio":"MONTERÍA","departamento":"CÓRDOBA","divipola":"23001"}
,{"id_mt":"4G016","entidad":"ANI","gizscore":"7.730567","fallecidos":"29","gipvalue":"0","tramo":"Planeta Rica - Montería","nombre":"IP – Antioquia – Bolívar","latitud":"8.694844","longitud":"-75.818022","pr":"41","municipio":"MONTERÍA","departamento":"CÓRDOBA","divipola":"23001"}
,{"id_mt":"4G016","entidad":"ANI","gizscore":"3.587306","fallecidos":"15","gipvalue":"0.000334","tramo":"Planeta Rica - Montería","nombre":"IP – Antioquia – Bolívar","latitud":"8.601799","longitud":"-75.737804","pr":"29","municipio":"MONTERÍA","departamento":"CÓRDOBA","divipola":"23001"}
,{"id_mt":"3G006","entidad":"ANI","gizscore":"8.026514","fallecidos":"30","gipvalue":"0","tramo":"Planeta Rica - Sincelejo","nombre":"Córdoba – Sucre","latitud":"9.29113","longitud":"-75.389608","pr":"sd","municipio":"SINCELEJO","departamento":"SUCRE","divipola":"70001"}
,{"id_mt":"3G006","entidad":"ANI","gizscore":"1.996146","fallecidos":"5","gipvalue":"0.045918","tramo":"Sincelejo - Toluviejo","nombre":"Córdoba – Sucre","latitud":"9.290947","longitud":"-75.411936","pr":"sd","municipio":"SINCELEJO","departamento":"SUCRE","divipola":"70001"}
,{"id_mt":"3G006","entidad":"ANI","gizscore":"1.942162","fallecidos":"11","gipvalue":"0.052117","tramo":"Sincelejo - Toluviejo","nombre":"Córdoba – Sucre","latitud":"9.302744","longitud":"-75.4129","pr":"sd","municipio":"SINCELEJO","departamento":"SUCRE","divipola":"70001"}
,{"id_mt":"<Null>","entidad":"INVIAS-OTROS","gizscore":"4.475148","fallecidos":"18","gipvalue":"0.0000080","tramo":"Puerta del Hierro-Magangué","latitud":"9.253232","longitud":"-74.768052","pr":"62","municipio":"MAGANGUÉ","departamento":"BOLÍVAR","divipola":"13430"}
,{"id_mt":"4G016","entidad":"ANI","gizscore":"3.883253","fallecidos":"16","gipvalue":"0.000103","tramo":"Caucasia-Planeta Rica","nombre":"IP – Antioquia – Bolívar","latitud":"8.361346","longitud":"-75.56274","pr":"59","municipio":"PLANETA RICA","departamento":"CÓRDOBA","divipola":"23555"}
,{"id_mt":"<Null>","entidad":"DEPTO","gizscore":"3.920156","fallecidos":"7","gipvalue":"0.000088","latitud":"7.079411","longitud":"-73.16713","pr":"9","municipio":"GIRÓN","departamento":"SANTANDER","divipola":"68307"}
,{"id_mt":"<Null>","entidad":"DEPTO","gizscore":"3.138462","fallecidos":"17","gipvalue":"0.001698","latitud":"7.092439","longitud":"-73.167864","pr":"12","municipio":"GIRÓN","departamento":"SANTANDER","divipola":"68307"}
,{"id_mt":"<Null>","entidad":"DEPTO","gizscore":"2.625762","fallecidos":"3","gipvalue":"0.008646","latitud":"7.105292","longitud":"-73.1642","pr":"12","municipio":"BUCARAMANGA","departamento":"SANTANDER","divipola":"68001"}
,{"id_mt":"<Null>","entidad":"INVIAS-OTROS","gizscore":"2.699465","fallecidos":"12","gipvalue":"0.006945","latitud":"6.935449","longitud":"-71.860429","pr":"126","municipio":"SARAVENA","departamento":"ARAUCA","divipola":"81736"}
,{"id_mt":"<Null>","entidad":"INVIAS-OTROS","gizscore":"3.291359","fallecidos":"14","gipvalue":"0.000997","latitud":"6.792454","longitud":"-71.762877","pr":"102","municipio":"FORTUL","departamento":"ARAUCA","divipola":"81300"}
,{"id_mt":"<Null>","entidad":"INVIAS-OTROS","gizscore":"3.822062","fallecidos":"11","gipvalue":"0.000132","tramo":"Yopal - Tame","latitud":"6.464472","longitud":"-71.724108","pr":"58","municipio":"TAME","departamento":"ARAUCA","divipola":"81794"}
,{"id_mt":"<Null>","entidad":"INVIAS-OTROS","gizscore":"3.138462","fallecidos":"15","gipvalue":"0.001698","tramo":"Tame - San Lope","latitud":"6.461702","longitud":"-71.73376","pr":"58","municipio":"TAME","departamento":"ARAUCA","divipola":"81794"}
,{"id_mt":"3G010","entidad":"ANI","gizscore":"2.995412","fallecidos":"13","gipvalue":"0.002741","tramo":"Guaduas-Puerto Salgar","nombre":"Ruta del Sol 1","latitud":"5.162565","longitud":"-74.589129","pr":"sd","municipio":"GUADUAS","departamento":"CUNDINAMARCA","divipola":"25320"}
,{"id_mt":"<Null>","entidad":"INVIAS-OTROS","gizscore":"2.884258","fallecidos":"11","gipvalue":"0.003923","tramo":"Viterbo-Ansermanuevo","latitud":"4.752233","longitud":"-75.926535","pr":"12","municipio":"CARTAGO","departamento":"VALLE DEL CAUCA","divipola":"76147"}
,{"id_mt":"4G017","entidad":"ANI","gizscore":"4.334761","fallecidos":"4","gipvalue":"0.000015","tramo":"Neiva-Girardot","nombre":"IP  –  Neiva – Espinal - Girardot","latitud":"4.159177","longitud":"-74.878766","pr":"37","municipio":"ESPINAL","departamento":"TOLIMA","divipola":"73268"}
,{"id_mt":"3G009","entidad":"ANI","gizscore":"4.179201","fallecidos":"17","gipvalue":"0.000029","nombre":"Girardot – Ibagué – Cajamarca","latitud":"4.180779","longitud":"-74.941403","pr":"29","municipio":"ESPINAL","departamento":"TOLIMA","divipola":"73268"}
,{"id_mt":"4G017","entidad":"ANI","gizscore":"4.334761","fallecidos":"11","gipvalue":"0.000015","nombre":"IP  –  Neiva – Espinal - Girardot","latitud":"4.166115","longitud":"-74.893365","pr":"35","municipio":"ESPINAL","departamento":"TOLIMA","divipola":"73268"}
,{"id_mt":"4G017","entidad":"ANI","gizscore":"3.587306","fallecidos":"15","gipvalue":"0.000334","tramo":"Neiva-Girardot","nombre":"IP  –  Neiva – Espinal - Girardot","latitud":"3.728237","longitud":"-75.078416","pr":"97","municipio":"COYAIMA","departamento":"TOLIMA","divipola":"73217"}
,{"id_mt":"<Null>","entidad":"INVIAS-OTROS","gizscore":"1.725132","fallecidos":"11","gipvalue":"0.084504","tramo":"Campoalegre-Neiva","latitud":"2.900041","longitud":"-75.280243","pr":"sd","municipio":"NEIVA","departamento":"HUILA","divipola":"41001"}
,{"id_mt":"4G022","entidad":"ANI","gizscore":"2.699465","fallecidos":"12","gipvalue":"0.006945","tramo":"Campoalegre-Neiva","nombre":"Santana - Mocoa - Neiva","latitud":"2.773851","longitud":"-75.304487","pr":"98","municipio":"RIVERA","departamento":"HUILA","divipola":"41615"}
,{"id_mt":"4G022","entidad":"ANI","gizscore":"4.179201","fallecidos":"17","gipvalue":"0.000029","tramo":"Campoalegre-Neiva","nombre":"Santana - Mocoa - Neiva","latitud":"2.823454","longitud":"-75.293748","pr":"102","municipio":"RIVERA","departamento":"HUILA","divipola":"41615"}
,{"id_mt":"<Null>","entidad":"INVIAS-OTROS","gizscore":"8.914356","fallecidos":"33","gipvalue":"0","tramo":"Cali - Jamundí - La Primavera","latitud":"3.334052","longitud":"-76.523275","pr":"114","municipio":"CALI","departamento":"VALLE DEL CAUCA","divipola":"76001"}
,{"id_mt":"<Null>","entidad":"INVIAS-OTROS","gizscore":"4.236583","fallecidos":"10","gipvalue":"0.000023","tramo":"Cali - Jamundí - La Primavera","latitud":"3.292549","longitud":"-76.524099","pr":"109","municipio":"CALI","departamento":"VALLE DEL CAUCA","divipola":"76001"}
,{"id_mt":"<Null>","entidad":"INVIAS-OTROS","gizscore":"5.872861","fallecidos":"16","gipvalue":"0","tramo":"Cali - Jamundí - La Primavera","latitud":"3.277813","longitud":"-76.530515","pr":"107","municipio":"JAMUNDÍ","departamento":"VALLE DEL CAUCA","divipola":"76364"}
,{"id_mt":"<Null>","entidad":"INVIAS-OTROS","gizscore":"5.701596","fallecidos":"17","gipvalue":"0","tramo":"Cali - Jamundí - La Primavera","latitud":"3.263976","longitud":"-76.532714","pr":"106","municipio":"JAMUNDÍ","departamento":"VALLE DEL CAUCA","divipola":"76364"}
,{"id_mt":"<Null>","entidad":"INVIAS-OTROS","gizscore":"5.658936","fallecidos":"22","gipvalue":"0","tramo":"Cali - Jamundí - La Primavera","latitud":"3.241905","longitud":"-76.520027","pr":"103","municipio":"JAMUNDÍ","departamento":"VALLE DEL CAUCA","divipola":"76364"}
,{"id_mt":"<Null>","entidad":"INVIAS-OTROS","gizscore":"2.699465","fallecidos":"12","gipvalue":"0.006945","tramo":"Santander de Quilichao-Candelaria","latitud":"3.125511","longitud":"-76.465252","pr":"87","municipio":"VILLA RICA","departamento":"CAUCA","divipola":"19845"}
,{"id_mt":"<Null>","entidad":"INVIAS-OTROS","gizscore":"3.883253","fallecidos":"16","gipvalue":"0.000103","tramo":"Santander de Quilichao-Candelaria","latitud":"3.202309","longitud":"-76.437167","pr":"6","municipio":"CALOTO","departamento":"CAUCA","divipola":"19142"}
,{"id_mt":"4G021","entidad":"ANI","gizscore":"1.725132","fallecidos":"9","gipvalue":"0.084504","tramo":"Popayán-Santander de Quilichao","nombre":"Popayán – Santander de Quilichao","latitud":"2.979634","longitud":"-76.512275","pr":"69","municipio":"SANTANDER DE QUILICHAO","departamento":"CAUCA","divipola":"19698"}
,{"id_mt":"4G021","entidad":"ANI","gizscore":"1.771262","fallecidos":"5","gipvalue":"0.076517","tramo":"Popayán-Santander de Quilichao","nombre":"Popayán – Santander de Quilichao","latitud":"2.96747","longitud":"-76.523872","pr":"67","municipio":"SANTANDER DE QUILICHAO","departamento":"CAUCA","divipola":"19698"}
,{"id_mt":"4G021","entidad":"ANI","gizscore":"1.771262","fallecidos":"4","gipvalue":"0.076517","tramo":"Popayán-Santander de Quilichao","nombre":"Popayán – Santander de Quilichao","latitud":"2.929906","longitud":"-76.533393","pr":"61","municipio":"SANTANDER DE QUILICHAO","departamento":"CAUCA","divipola":"19698"}
,{"id_mt":"4G021","entidad":"ANI","gizscore":"2.967562","fallecidos":"4","gipvalue":"0.003002","tramo":"Popayán-Santander de Quilichao","nombre":"Popayán – Santander de Quilichao","latitud":"2.905431","longitud":"-76.548111","pr":"57","municipio":"SANTANDER DE QUILICHAO","departamento":"CAUCA","divipola":"19698"}
,{"id_mt":"4G021","entidad":"ANI","gizscore":"2.143707","fallecidos":"12","gipvalue":"0.032056","tramo":"Popayán-Santander de Quilichao","nombre":"Popayán – Santander de Quilichao","latitud":"2.891072","longitud":"-76.549033","pr":"55","municipio":"SANTANDER DE QUILICHAO","departamento":"CAUCA","divipola":"19698"}
,{"id_mt":"4G021","entidad":"ANI","gizscore":"2.113062","fallecidos":"3","gipvalue":"0.034595","tramo":"Popayán-Santander de Quilichao","nombre":"Popayán – Santander de Quilichao","latitud":"2.856049","longitud":"-76.547731","pr":"51","municipio":"CALDONO","departamento":"CAUCA","divipola":"19137"}
,{"id_mt":"4G021","entidad":"ANI","gizscore":"1.771262","fallecidos":"10","gipvalue":"0.076517","tramo":"Popayán-Santander de Quilichao","nombre":"Popayán – Santander de Quilichao","latitud":"2.84217","longitud":"-76.543632","pr":"49","municipio":"CALDONO","departamento":"CAUCA","divipola":"19137"}
,{"id_mt":"4G021","entidad":"ANI","gizscore":"2.113062","fallecidos":"6","gipvalue":"0.034595","tramo":"Popayán-Santander de Quilichao","nombre":"Popayán – Santander de Quilichao","latitud":"2.827031","longitud":"-76.53812","pr":"47","municipio":"CALDONO","departamento":"CAUCA","divipola":"19137"}
,{"id_mt":"4G021","entidad":"ANI","gizscore":"1.848127","fallecidos":"4","gipvalue":"0.064584","tramo":"Popayán-Santander de Quilichao","nombre":"Popayán – Santander de Quilichao","latitud":"2.619268","longitud":"-76.517618","pr":"19","municipio":"CAJIBÍO","departamento":"CAUCA","divipola":"19130"}
,{"id_mt":"4G021","entidad":"ANI","gizscore":"2.113062","fallecidos":"8","gipvalue":"0.034595","tramo":"Popayán-Santander de Quilichao","nombre":"Popayán – Santander de Quilichao","latitud":"2.612005","longitud":"-76.521688","pr":"19","municipio":"CAJIBÍO","departamento":"CAUCA","divipola":"19130"}
,{"id_mt":"4G021","entidad":"ANI","gizscore":"2.454862","fallecidos":"9","gipvalue":"0.014094","tramo":"Popayán-Santander de Quilichao","nombre":"Popayán – Santander de Quilichao","latitud":"2.6019","longitud":"-76.527638","pr":"17","municipio":"CAJIBÍO","departamento":"CAUCA","divipola":"19130"}
,{"id_mt":"4G021","entidad":"ANI","gizscore":"1.771262","fallecidos":"6","gipvalue":"0.076517","tramo":"Popayán-Santander de Quilichao","nombre":"Popayán – Santander de Quilichao","latitud":"2.589271","longitud":"-76.533741","pr":"15","municipio":"CAJIBÍO","departamento":"CAUCA","divipola":"19130"}
,{"id_mt":"<Null>","entidad":"INVIAS-OTROS","gizscore":"1.88596","fallecidos":"7","gipvalue":"0.0593","latitud":"2.450318","longitud":"-76.627068","pr":"3","municipio":"POPAYÁN","departamento":"CAUCA","divipola":"19001"}
,{"id_mt":"<Null>","entidad":"INVIAS-OTROS","gizscore":"1.659538","fallecidos":"7","gipvalue":"0.097007","tramo":"Pasto-Popayán","latitud":"2.456928","longitud":"-76.638843","pr":"58","municipio":"POPAYÁN","departamento":"CAUCA","divipola":"19001"}
,{"id_mt":"<Null>","entidad":"INVIAS-OTROS","gizscore":"2.022182","fallecidos":"6","gipvalue":"0.043158","tramo":"Pasto-Popayán","latitud":"2.442898","longitud":"-76.631766","pr":"2","municipio":"POPAYÁN","departamento":"CAUCA","divipola":"19001"}
,{"id_mt":"<Null>","entidad":"INVIAS-OTROS","gizscore":"1.942162","fallecidos":"4","gipvalue":"0.052117","tramo":"Pasto-Popayán","latitud":"2.109391","longitud":"-76.989407","pr":"41","municipio":"PATÍA (El Bordo)","departamento":"CAUCA","divipola":"19532"}
,{"id_mt":"<Null>","entidad":"INVIAS-OTROS","gizscore":"2.699465","fallecidos":"12","gipvalue":"0.006945","tramo":"Pasto-Popayán","latitud":"1.409443","longitud":"-77.285404","pr":"34","municipio":"CHACHAGUÍ","departamento":"NARIÑO","divipola":"52240"}
,{"id_mt":"<Null>","entidad":"INVIAS-OTROS","gizscore":"2.884258","fallecidos":"21","gipvalue":"0.003923","tramo":"Pasto - La Unión - Mercaderes","latitud":"1.233546","longitud":"-77.288157","pr":"6","municipio":"PASTO","departamento":"NARIÑO","divipola":"52001"}
,{"id_mt":"<Null>","entidad":"INVIAS-OTROS","gizscore":"3.480262","fallecidos":"6","gipvalue":"0.000501","tramo":"Pasto - Sandona - Yacuanquer","latitud":"1.228488","longitud":"-77.290755","pr":"91","municipio":"PASTO","departamento":"NARIÑO","divipola":"52001"}
,{"id_mt":"<Null>","entidad":"INVIAS-OTROS","gizscore":"2.33129","fallecidos":"2","gipvalue":"0.019738","tramo":"Pasto - Sandona - Yacuanquer","latitud":"1.235623","longitud":"-77.300487","pr":"6","municipio":"PASTO","departamento":"NARIÑO","divipola":"52001"}
,{"id_mt":"<Null>","entidad":"INVIAS-OTROS","gizscore":"2.77157","fallecidos":"12","gipvalue":"0.005579","latitud":"3.547273","longitud":"-76.294634","pr":"23","municipio":"PALMIRA","departamento":"VALLE DEL CAUCA","divipola":"76520"}
,{"id_mt":"<Null>","entidad":"INVIAS-OTROS","gizscore":"2.143707","fallecidos":"13","gipvalue":"0.032056","tramo":"Palmira - El Palo","latitud":"3.178586","longitud":"-76.257139","pr":"38","municipio":"CORINTO","departamento":"CAUCA","divipola":"19212"}
,{"id_mt":"<Null>","entidad":"INVIAS-OTROS","gizscore":"1.811623","fallecidos":"9","gipvalue":"0.070044","tramo":"Palmira - El Palo","latitud":"3.295063","longitud":"-76.229263","pr":"52","municipio":"FLORIDA","departamento":"VALLE DEL CAUCA","divipola":"76275"}
,{"id_mt":"<Null>","entidad":"INVIAS-OTROS","gizscore":"2.352995","fallecidos":"1","gipvalue":"0.018623","tramo":"Palmira - El Palo","latitud":"3.403672","longitud":"-76.238295","pr":"68","municipio":"PRADERA","departamento":"VALLE DEL CAUCA","divipola":"76563"}
,{"id_mt":"<Null>","entidad":"INVIAS-OTROS","gizscore":"2.352995","fallecidos":"16","gipvalue":"0.018623","tramo":"Palmira - El Palo","latitud":"3.418195","longitud":"-76.242316","pr":"70","municipio":"PRADERA","departamento":"VALLE DEL CAUCA","divipola":"76563"}
,{"id_mt":"<Null>","entidad":"INVIAS-OTROS","gizscore":"2.699465","fallecidos":"12","gipvalue":"0.006945","tramo":"Palmira - El Palo","latitud":"3.454401","longitud":"-76.242808","pr":"74","municipio":"PRADERA","departamento":"VALLE DEL CAUCA","divipola":"76563"}
,{"id_mt":"<Null>","entidad":"INVIAS-OTROS","gizscore":"4.163861","fallecidos":"4","gipvalue":"0.000031","tramo":"Candelaria-Buga","latitud":"3.421848","longitud":"-76.350184","pr":"37","municipio":"CANDELARIA","departamento":"VALLE DEL CAUCA","divipola":"76130"}
,{"id_mt":"<Null>","entidad":"INVIAS-OTROS","gizscore":"5.073733","fallecidos":"26","gipvalue":"0","tramo":"Santander de Quilichao-Candelaria","latitud":"3.405531","longitud":"-76.35194","pr":"35","municipio":"CANDELARIA","departamento":"VALLE DEL CAUCA","divipola":"76130"}
,{"id_mt":"<Null>","entidad":"INVIAS-OTROS","gizscore":"1.811623","fallecidos":"9","gipvalue":"0.070044","tramo":"Santander de Quilichao-Candelaria","latitud":"3.387203","longitud":"-76.352804","pr":"33","municipio":"CANDELARIA","departamento":"VALLE DEL CAUCA","divipola":"76130"}
,{"id_mt":"<Null>","entidad":"INVIAS-OTROS","gizscore":"2.699465","fallecidos":"12","gipvalue":"0.006945","tramo":"El Cerrito - Obando - Cali","latitud":"3.57099","longitud":"-76.408845","pr":"sd","municipio":"PALMIRA","departamento":"VALLE DEL CAUCA","divipola":"76520"}
,{"id_mt":"<Null>","entidad":"INVIAS-OTROS","gizscore":"2.77157","fallecidos":"7","gipvalue":"0.005579","latitud":"3.563894","longitud":"-76.290876","pr":"26","municipio":"PALMIRA","departamento":"VALLE DEL CAUCA","divipola":"76520"}
,{"id_mt":"<Null>","entidad":"INVIAS-OTROS","gizscore":"3.291359","fallecidos":"14","gipvalue":"0.000997","latitud":"3.580975","longitud":"-76.281778","pr":"27","municipio":"PALMIRA","departamento":"VALLE DEL CAUCA","divipola":"76520"}
,{"id_mt":"<Null>","entidad":"INVIAS-OTROS","gizscore":"2.699465","fallecidos":"12","gipvalue":"0.006945","tramo":"Granada - Villavicencio","latitud":"4.102055","longitud":"-73.658598","pr":"72","municipio":"VILLAVICENCIO","departamento":"META","divipola":"50001"}
,{"id_mt":"4G012","entidad":"ANI","gizscore":"1.811623","fallecidos":"9","gipvalue":"0.070044","tramo":"Granada - Villavicencio","nombre":"IP Malla Vial del Meta","latitud":"4.086963","longitud":"-73.673234","pr":"70","municipio":"VILLAVICENCIO","departamento":"META","divipola":"50001"}
,{"id_mt":"4G012","entidad":"ANI","gizscore":"4.179201","fallecidos":"17","gipvalue":"0.000029","tramo":"Granada - Villavicencio","nombre":"IP Malla Vial del Meta","latitud":"3.975073","longitud":"-73.767709","pr":"48","municipio":"ACACÍAS","departamento":"META","divipola":"50006"}
,{"id_mt":"4G012","entidad":"ANI","gizscore":"1.811623","fallecidos":"9","gipvalue":"0.070044","tramo":"Granada - Villavicencio","nombre":"IP Malla Vial del Meta","latitud":"3.846129","longitud":"-73.763028","pr":"34","municipio":"GUAMAL","departamento":"META","divipola":"50318"}
,{"id_mt":"4G012","entidad":"ANI","gizscore":"1.811623","fallecidos":"9","gipvalue":"0.070044","tramo":"Granada - Villavicencio","nombre":"IP Malla Vial del Meta","latitud":"3.765605","longitud":"-73.728621","pr":"24","municipio":"CUBARRAL","departamento":"META","divipola":"50223"}
,{"id_mt":"<Null>","entidad":"INVIAS-OTROS","gizscore":"2.403517","fallecidos":"11","gipvalue":"0.016238","tramo":"San Juan de Arama-Granada","latitud":"3.435439","longitud":"-73.762426","pr":"93","municipio":"GRANADA","departamento":"META","divipola":"50313"}
,{"id_mt":"<Null>","entidad":"INVIAS-OTROS","gizscore":"2.10757","fallecidos":"10","gipvalue":"0.035068","tramo":"Florencia - Guayabal - Altamira","latitud":"1.984003","longitud":"-75.79456","pr":"5","municipio":"SUAZA","departamento":"HUILA","divipola":"41770"}
,{"id_mt":"<Null>","entidad":"INVIAS-OTROS","gizscore":"2.995412","fallecidos":"13","gipvalue":"0.002741","tramo":"Florencia - Guayabal - Altamira","latitud":"1.958148","longitud":"-75.799874","pr":"8","municipio":"SUAZA","departamento":"HUILA","divipola":"41770"}
,{"id_mt":"<Null>","entidad":"INVIAS-OTROS","gizscore":"2.10757","fallecidos":"10","gipvalue":"0.035068","tramo":"Florencia - Guayabal - Altamira","latitud":"1.824159","longitud":"-75.80044","pr":"28","municipio":"SUAZA","departamento":"HUILA","divipola":"41770"}
,{"id_mt":"<Null>","entidad":"INVIAS-OTROS","gizscore":"2.113062","fallecidos":"6","gipvalue":"0.034595","tramo":"Florencia - Guayabal - Altamira","latitud":"1.625063","longitud":"-75.612312","pr":"sd","municipio":"FLORENCIA","departamento":"CAQUETÁ","divipola":"18001"}
,{"id_mt":"<Null>","entidad":"INVIAS-OTROS","gizscore":"2.77157","fallecidos":"13","gipvalue":"0.005579","tramo":"Florencia  - San Vicente del Caguán","latitud":"1.611408","longitud":"-75.604107","pr":"sd","municipio":"FLORENCIA","departamento":"CAQUETÁ","divipola":"18001"}
,{"id_mt":"<Null>","entidad":"INVIAS-OTROS","gizscore":"2.995412","fallecidos":"13","gipvalue":"0.002741","tramo":"Pasto - La Unión - Mercaderes","latitud":"1.598288","longitud":"-77.131184","pr":"89","municipio":"LA UNIÓN","departamento":"NARIÑO","divipola":"52399"}
,{"id_mt":"<Null>","entidad":"INVIAS-OTROS","gizscore":"2.699465","fallecidos":"12","gipvalue":"0.006945","tramo":"Tumaco-Pedregal","latitud":"1.390962","longitud":"-78.52431","pr":"65","municipio":"TUMACO","departamento":"NARIÑO","divipola":"52835"}
,{"id_mt":"<Null>","entidad":"INVIAS-OTROS","gizscore":"2.10757","fallecidos":"10","gipvalue":"0.035068","tramo":"Tumaco-Pedregal","latitud":"1.401704","longitud":"-78.567598","pr":"61","municipio":"TUMACO","departamento":"NARIÑO","divipola":"52835"}
,{"id_mt":"<Null>","entidad":"INVIAS-OTROS","gizscore":"2.995412","fallecidos":"13","gipvalue":"0.002741","tramo":"Tumaco-Pedregal","latitud":"1.658525","longitud":"-78.745214","pr":"25","municipio":"TUMACO","departamento":"NARIÑO","divipola":"52835"}
,{"id_mt":"<Null>","entidad":"INVIAS-OTROS","gizscore":"2.403517","fallecidos":"11","gipvalue":"0.016238","tramo":"Tumaco-Pedregal","latitud":"1.700747","longitud":"-78.768033","pr":"19","municipio":"TUMACO","departamento":"NARIÑO","divipola":"52835"}
,{"id_mt":"<Null>","entidad":"INVIAS-OTROS","gizscore":"14.537352","fallecidos":"52","gipvalue":"0","tramo":"Tumaco-Pedregal","latitud":"1.759821","longitud":"-78.785521","pr":"13","municipio":"TUMACO","departamento":"NARIÑO","divipola":"52835"}
,{"id_mt":"<Null>","entidad":"INVIAS-OTROS","gizscore":"6.329459","fallecidos":"11","gipvalue":"0","tramo":"Tumaco-Pedregal","latitud":"1.798587","longitud":"-78.787178","pr":"8","municipio":"TUMACO","departamento":"NARIÑO","divipola":"52835"}
,{"id_mt":"<Null>","entidad":"INVIAS-OTROS","gizscore":"6.329459","fallecidos":"25","gipvalue":"0","tramo":"Tumaco-Pedregal","latitud":"1.806879","longitud":"-78.773299","pr":"5","municipio":"TUMACO","departamento":"NARIÑO","divipola":"52835"}
,{"id_mt":"<Null>","entidad":"INVIAS-OTROS","gizscore":"2.144165","fallecidos":"4","gipvalue":"0.03202","tramo":"Ipiales - Aldana - Guachucal","latitud":"0.828364","longitud":"-77.65515","pr":"2","municipio":"IPIALES","departamento":"NARIÑO","divipola":"52356"}
,{"id_mt":"<Null>","entidad":"INVIAS-OTROS","gizscore":"2.440202","fallecidos":"15","gipvalue":"0.014679","tramo":"Ipiales - Aldana - Guachucal","latitud":"0.829329","longitud":"-77.639032","pr":"24","municipio":"IPIALES","departamento":"NARIÑO","divipola":"52356"}
,{"id_mt":"4G025","entidad":"ANI","gizscore":"3.309362","fallecidos":"21","gipvalue":"0.000935","tramo":"Ipiales-Pedregal","nombre":"Rumichaca – Pasto","latitud":"0.833808","longitud":"-77.601423","pr":"0","municipio":"IPIALES","departamento":"NARIÑO","divipola":"52356"}
,{"id_mt":"4G025","entidad":"ANI","gizscore":"3.258129","fallecidos":"2","gipvalue":"0.001121","tramo":"Puente Rumichaca-Ipiales","nombre":"Rumichaca – Pasto","latitud":"0.826163","longitud":"-77.615641","pr":"6","municipio":"IPIALES","departamento":"NARIÑO","divipola":"52356"}
,{"id_mt":"4G025","entidad":"ANI","gizscore":"2.440202","fallecidos":"8","gipvalue":"0.014679","tramo":"Puente Rumichaca-Ipiales","nombre":"Rumichaca – Pasto","latitud":"0.821057","longitud":"-77.639026","pr":"3","municipio":"IPIALES","departamento":"NARIÑO","divipola":"52356"}
,{"id_mt":"4G025","entidad":"ANI","gizscore":"2.868352","fallecidos":"1","gipvalue":"0.004126","tramo":"Puente Rumichaca-Ipiales","nombre":"Rumichaca – Pasto","latitud":"0.821702","longitud":"-77.625752","pr":"0","municipio":"IPIALES","departamento":"NARIÑO","divipola":"52356"}
,{"id_mt":"4G025","entidad":"ANI","gizscore":"3.138462","fallecidos":"5","gipvalue":"0.001698","tramo":"Ipiales-Pedregal","nombre":"Rumichaca – Pasto","latitud":"0.844634","longitud":"-77.588471","pr":"10","municipio":"IPIALES","departamento":"NARIÑO","divipola":"52356"}
,{"id_mt":"<Null>","entidad":"DEPTO","gizscore":"2.143707","fallecidos":"1","gipvalue":"0.032056","tramo":"Yopal - Tame","latitud":"6.444969","longitud":"-71.734549","pr":"sd","municipio":"TAME","departamento":"ARAUCA","divipola":"81794"}
,{"id_mt":"<Null>","entidad":"INVIAS-OTROS","gizscore":"2.10757","fallecidos":"10","gipvalue":"0.035068","tramo":"Tierralta-Puerto Libertador-Montelíbano","latitud":"7.954895","longitud":"-75.432629","pr":"sd","municipio":"MONTELÍBANO","departamento":"CÓRDOBA","divipola":"23466"}
,{"id_mt":"<Null>","entidad":"INVIAS-OTROS","gizscore":"2.980858","fallecidos":"10","gipvalue":"0.002874","tramo":"La Gloria- El Tarra-Campo Seis","latitud":"8.635917","longitud":"-72.738802","pr":"sd","municipio":"TIBÚ","departamento":"NORTE DE SANTANDER","divipola":"54810"}
,{"id_mt":"<Null>","entidad":"DEPTO","gizscore":"2.292183","fallecidos":"10","gipvalue":"0.021895","tramo":"La Gloria- El Tarra-Campo Seis","latitud":"8.637569","longitud":"-72.728412","pr":"sd","municipio":"TIBÚ","departamento":"NORTE DE SANTANDER","divipola":"54810"}
,{"id_mt":"<Null>","entidad":"DEPTO","gizscore":"3.587306","fallecidos":"15","gipvalue":"0.000334","tramo":"San Alberto - Bucaramanga","latitud":"7.251126","longitud":"-73.149176","pr":"14","municipio":"RIONEGRO","departamento":"SANTANDER","divipola":"68615"}
,{"id_mt":"4G017","entidad":"ANI","gizscore":"5.954884","fallecidos":"23","gipvalue":"0","tramo":"Neiva-Girardot","nombre":"IP  –  Neiva – Espinal - Girardot","latitud":"4.209663","longitud":"-74.852622","pr":"50","municipio":"FLANDES","departamento":"TOLIMA","divipola":"73275"}
,{"id_mt":"4G026","entidad":"ANI","gizscore":"3.587306","fallecidos":"15","gipvalue":"0.000334","tramo":"Chigorodó-Turbo","nombre":"Autopistas al Mar 2","latitud":"7.873917","longitud":"-76.635127","pr":"30","municipio":"APARTADÓ","departamento":"ANTIOQUIA","divipola":"5045"}
,{"id_mt":"3G012","entidad":"ANI","gizscore":"2.699465","fallecidos":"12","gipvalue":"0.006945","tramo":"Bosconia - Cienaga","nombre":"Ruta del Sol 3","latitud":"9.780252","longitud":"-73.748405","pr":"62","municipio":"EL PASO","departamento":"CESAR","divipola":"20250"}
,{"id_mt":"4G026","entidad":"ANI","gizscore":"6.546778","fallecidos":"25","gipvalue":"0","tramo":"Chigorodó-Turbo","nombre":"Autopistas al Mar 2","latitud":"8.005361","longitud":"-76.640697","pr":"16","municipio":"TURBO","departamento":"ANTIOQUIA","divipola":"5837"}
,{"id_mt":"3G012","entidad":"ANI","gizscore":"2.403517","fallecidos":"11","gipvalue":"0.016238","tramo":"Bosconia - Cienaga","nombre":"Ruta del Sol 3","latitud":"10.31016","longitud":"-74.046928","pr":"8","municipio":"ALGARROBO","departamento":"MAGDALENA","divipola":"47030"}
,{"id_mt":"4G016","entidad":"ANI","gizscore":"2.699465","fallecidos":"12","gipvalue":"0.006945","tramo":"San Pelayo-Lorica","nombre":"IP – Antioquia – Bolívar","latitud":"9.030229","longitud":"-75.827469","pr":"25","municipio":"COTORRA","departamento":"CÓRDOBA","divipola":"23300"}
,{"id_mt":"4G017","entidad":"ANI","gizscore":"4.771095","fallecidos":"19","gipvalue":"0.0000020","tramo":"Neiva-Girardot","nombre":"IP  –  Neiva – Espinal - Girardot","latitud":"3.728237","longitud":"-75.078416","pr":"97","municipio":"COYAIMA","departamento":"TOLIMA","divipola":"73217"}]
